istat,comune,lng,lat
1001,Agliè,7.76860000,45.36343304
1002,Airasca,7.48443104,44.91688598
1003,Ala di Stura,7.30434392,45.31511014
1004,Albiano d'Ivrea,7.94914491,45.43389336
1005,Alice Superiore,7.77701858,45.46009360
1006,Almese,7.39518194,45.11766321
1007,Alpette,7.57859732,45.40998223
1008,Alpignano,7.52426733,45.09446973
1009,Andezeno,7.86994864,45.03586095
1010,Andrate,7.87383937,45.52837479
1011,Angrogna,7.22429215,44.84344991
1012,Arignano,7.90244635,45.04402899
1013,Avigliana,7.39632339,45.07935742
1014,Azeglio,7.99477070,45.42486190
1015,Bairo,7.75691809,45.38624929
1016,Balangero,7.51930957,45.27003001
1017,Baldissero Canavese,7.74444451,45.40840358
1018,Baldissero Torinese,7.81780767,45.06842334
1019,Balme,7.21831414,45.30229406
1020,Banchette,7.85656384,45.46085010
1021,Barbania,7.63051093,45.29050020
1022,Bardonecchia,6.70382393,45.07816901
1023,Barone Canavese,7.87055626,45.32772558
1024,Beinasco,7.57915804,45.02207899
1025,Bibiana,7.28978596,44.79758015
1026,Bobbio Pellice,7.11790449,44.80770617
1027,Bollengo,7.94534881,45.47335720
1028,Borgaro Torinese,7.65789441,45.15198241
1029,Borgiallo,7.66773369,45.41681320
1030,Borgofranco d'Ivrea,7.85852209,45.51300686
1031,Borgomasino,7.98879962,45.36155134
1032,Borgone Susa,7.24121397,45.12313936
1033,Bosconero,7.76506984,45.26856393
1034,Brandizzo,7.84147562,45.17765247
1035,Bricherasio,7.30288754,44.82558164
1036,Brosso,7.80333443,45.49276005
1037,Brozolo,8.07127843,45.11741930
1038,Bruino,7.46769111,45.02023250
1039,Brusasco,8.06009417,45.15595512
1040,Bruzolo,7.19397692,45.14312487
1041,Buriasco,7.41192286,44.87335846
1042,Burolo,7.93205672,45.48411969
1043,Busano,7.65574370,45.32883648
1044,Bussoleno,7.14931876,45.13727952
1045,Buttigliera Alta,7.43678073,45.06701514
1046,Cafasse,7.51812356,45.24471151
1047,Caluso,7.89150532,45.30786205
1048,Cambiano,7.77932471,44.97345960
1049,Campiglione Fenile,7.32503803,44.80212440
1050,Candia Canavese,7.88661250,45.32816809
1051,Candiolo,7.60121104,44.96026547
1052,Canischio,7.59521831,45.37434585
1053,Cantalupa,7.33260383,44.94030975
1054,Cantoira,7.38167977,45.34323553
1055,Caprie,7.33250655,45.11786515
1056,Caravino,7.96021360,45.39860532
1057,Carema,7.81230448,45.58444747
1058,Carignano,7.67534298,44.90666664
1059,Carmagnola,7.71815745,44.84654865
1060,Casalborgone,7.94044052,45.12996270
1061,Cascinette d'Ivrea,7.90469845,45.47845422
1062,Caselette,7.48320717,45.10588105
1063,Caselle Torinese,7.64818634,45.17716554
1064,Castagneto Po,7.88698844,45.16060833
1065,Castagnole Piemonte,7.56655619,44.89861960
1066,Castellamonte,7.70986533,45.38333540
1067,Castelnuovo Nigra,7.69511431,45.43732305
1068,Castiglione Torinese,7.81609370,45.12330917
1069,Cavagnolo,8.05131021,45.15207451
1070,Cavour,7.37523198,44.78403126
1071,Cercenasco,7.50125803,44.86126074
1072,Ceres,7.38934335,45.31307899
1073,Ceresole Reale,7.23254114,45.43261794
1074,Cesana Torinese,6.79422776,44.95241086
1075,Chialamberto,7.34570078,45.36285948
1076,Chianocco,7.16939346,45.14858580
1077,Chiaverano,7.90312753,45.49939701
1078,Chieri,7.82107157,45.01315317
1079,Chiesanuova,7.65605931,45.41780821
1080,Chiomonte,6.98338614,45.11938583
1081,Chiusa di San Michele,7.32644490,45.10154711
1082,Chivasso,7.88713950,45.18855522
1083,Ciconio,7.75987216,45.33032199
1084,Cintano,7.68662115,45.42805026
1085,Cinzano,7.92112148,45.09389859
1086,Ciriè,7.60378213,45.23202337
1087,Claviere,6.74930630,44.93861812
1088,Coassolo Torinese,7.46132937,45.30071349
1089,Coazze,7.29464354,45.05141806
1090,Collegno,7.56912947,45.07740152
1091,Colleretto Castelnuovo,7.67898169,45.42140642
1092,Colleretto Giacosa,7.79996443,45.43288813
1093,Condove,7.31072991,45.11714338
1094,Corio,7.53256155,45.31274311
1095,Cossano Canavese,7.99337324,45.38833099
1096,Cuceglio,7.81484395,45.35892893
1097,Cumiana,7.37437677,44.98279566
1098,Cuorgnè,7.64891501,45.39122707
1099,Druento,7.57620424,45.13473277
1100,Exilles,6.92962420,45.09749088
1101,Favria,7.68801437,45.33284709
1102,Feletto,7.74710800,45.30549111
1103,Fenestrelle,7.05188671,45.03429618
1104,Fiano,7.51978357,45.21812133
1105,Fiorano Canavese,7.82897738,45.46756986
1106,Foglizzo,7.82317874,45.27201738
1107,Forno Canavese,7.58678049,45.34683712
1108,Frassinetto,7.60567906,45.43603247
1109,Front,7.66559657,45.27955070
1110,Frossasco,7.35077043,44.93362239
1111,Garzigliana,7.37473116,44.83677569
1112,Gassino Torinese,7.82489660,45.12745280
1113,Germagnano,7.46686447,45.26218096
1114,Giaglione,7.01413849,45.13968801
1115,Giaveno,7.35308652,45.04475307
1116,Givoletto,7.49677295,45.15877935
1117,Gravere,7.02107286,45.12391840
1118,Groscavallo,7.28229522,45.36895345
1119,Grosso,7.55663354,45.25636722
1120,Grugliasco,7.57780057,45.06211095
1121,Ingria,7.57086278,45.46629106
1122,Inverso Pinasca,7.21596397,44.94722972
1123,Isolabella,7.90926775,44.90664468
1124,Issiglio,7.75416284,45.44680942
1125,Ivrea,7.87596694,45.46618879
1126,La Cassa,7.51913001,45.18182357
1127,La Loggia,7.66770716,44.95667810
1128,Lanzo Torinese,7.47661560,45.27231992
1129,Lauriano,7.99166951,45.15845502
1130,Leini,7.71510758,45.18393696
1131,Lemie,7.29288179,45.22855660
1132,Lessolo,7.81421978,45.47615621
1133,Levone,7.60590068,45.31810409
1134,Locana,7.46126241,45.41699254
1135,Lombardore,7.73626699,45.23570752
1136,Lombriasco,7.63577870,44.84160233
1137,Loranzè,7.81087110,45.44223125
1138,Lugnacco,7.78064470,45.44465477
1139,Luserna San Giovanni,7.24579065,44.81432177
1140,Lusernetta,7.25023582,44.80236620
1141,Lusigliè,7.76646663,45.31856534
1142,Macello,7.40079259,44.85117887
1143,Maglione,8.01174454,45.34770337
1144,Marentino,7.87332971,45.05800482
1145,Massello,7.05631276,44.95856162
1146,Mathi,7.54132093,45.25664137
1147,Mattie,7.11215191,45.11870520
1148,Mazzè,7.93700162,45.29853622
1149,Meana di Susa,7.06814068,45.12073332
1150,Mercenasco,7.88256683,45.35697859
1151,Meugliano,7.77896220,45.49006995
1152,Mezzenile,7.39502001,45.29240402
1153,Mombello di Torino,7.91954830,45.04640010
1154,Mompantero,7.05797330,45.13990657
1155,Monastero di Lanzo,7.43913232,45.30142445
1156,Moncalieri,7.68524785,45.00092557
1157,Moncenisio,6.98356095,45.20528865
1158,Montaldo Torinese,7.85089356,45.06636449
1159,Montalenghe,7.83985641,45.33772294
1160,Montalto Dora,7.86379472,45.49362402
1161,Montanaro,7.85282569,45.23289425
1162,Monteu da Po,8.01478453,45.15054215
1163,Moriondo Torinese,7.94405562,45.03906243
1164,Nichelino,7.64737268,44.99519052
1165,Noasca,7.31354369,45.45305086
1166,Nole,7.57012122,45.24523673
1167,Nomaglio,7.85971537,45.53518242
1168,None,7.54123958,44.93231301
1169,Novalesa,7.01466579,45.18763602
1170,Oglianico,7.69274392,45.34256696
1171,Orbassano,7.53695676,45.00703303
1172,Orio Canavese,7.86029968,45.32848958
1173,Osasco,7.34316619,44.84947467
1174,Osasio,7.60752807,44.86946279
1175,Oulx,6.83221872,45.03127204
1176,Ozegna,7.74313424,45.34901489
1177,Palazzo Canavese,7.97804950,45.45747804
1178,Pancalieri,7.58816166,44.83047398
1179,Parella,7.79102750,45.42998528
1180,Pavarolo,7.83475798,45.06892615
1181,Pavone Canavese,7.85397607,45.43526120
1182,Pecco,7.77647961,45.45206809
1183,Pecetto Torinese,7.74869987,45.01955866
1184,Perosa Argentina,7.19237022,44.95809915
1185,Perosa Canavese,7.82925599,45.39715691
1186,Perrero,7.11526705,44.93745704
1187,Pertusio,7.63872415,45.35339905
1188,Pessinetto,7.40284722,45.29054324
1189,Pianezza,7.54635756,45.10062332
1190,Pinasca,7.22767284,44.94266195
1191,Pinerolo,7.33200099,44.88733486
1192,Pino Torinese,7.77216514,45.04352010
1193,Piobesi Torinese,7.61193106,44.93305708
1194,Piossasco,7.46275512,44.99070006
1195,Piscina,7.42589738,44.91946420
1196,Piverone,8.00710274,45.44754377
1197,Poirino,7.84361932,44.92119885
1198,Pomaretto,7.18220303,44.95506624
1199,Pont-Canavese,7.59357096,45.42072843
1200,Porte,7.26798510,44.88756523
1201,Pragelato,6.94229337,45.01627560
1202,Prali,7.04904363,44.89040764
1203,Pralormo,7.90066311,44.86135787
1204,Pramollo,7.21169848,44.90458825
1205,Prarostino,7.26972140,44.86584045
1206,Prascorsano,7.61570863,45.36765655
1207,Pratiglione,7.59609066,45.35364806
1208,Quagliuzzo,7.78183655,45.42649496
1209,Quassolo,7.83247599,45.52493469
1210,Quincinetto,7.80576899,45.56081088
1211,Reano,7.42955396,45.05170702
1212,Ribordone,7.50241918,45.43160898
1213,Rivalba,7.88704470,45.11880638
1214,Rivalta di Torino,7.52329257,45.03454517
1215,Riva presso Chieri,7.86919927,44.98628102
1216,Rivara,7.62506151,45.33231529
1217,Rivarolo Canavese,7.72522130,45.33279488
1218,Rivarossa,7.71719961,45.25127899
1219,Rivoli,7.53394487,45.07062854
1220,Robassomero,7.57015928,45.20008262
1221,Rocca Canavese,7.57853704,45.30940721
1222,Roletto,7.33066832,44.92524919
1223,Romano Canavese,7.86790447,45.39134325
1224,Ronco Canavese,7.54567243,45.49942910
1225,Rondissone,7.96581632,45.24678796
1226,Rorà,7.19849234,44.79230499
1227,Roure,7.12908516,45.00108393
1228,Rosta,7.46396720,45.07142005
1229,Rubiana,7.38239842,45.13920427
1230,Rueglio,7.75582201,45.46784892
1231,Salassa,7.68939186,45.35955646
1232,Salbertrand,6.88368812,45.07237164
1233,Salerano Canavese,7.84990248,45.45644258
1234,Salza di Pinerolo,7.05324489,44.94054394
1235,Samone,7.84564332,45.44928553
1236,San Benigno Canavese,7.78265511,45.22396157
1237,San Carlo Canavese,7.61016157,45.24815307
1238,San Colombano Belmonte,7.61845112,45.38143971
1239,San Didero,7.21515502,45.13516257
1240,San Francesco al Campo,7.65566462,45.22553762
1241,Sangano,7.45053852,45.02623590
1242,San Germano Chisone,7.24085653,44.89871585
1243,San Gillio,7.53383254,45.14205994
1244,San Giorgio Canavese,7.79425943,45.33544394
1245,San Giorio di Susa,7.17753154,45.12841513
1246,San Giusto Canavese,7.80833346,45.31221415
1247,San Martino Canavese,7.81836251,45.39459427
1248,San Maurizio Canavese,7.63075305,45.21911823
1249,San Mauro Torinese,7.76632833,45.10309541
1250,San Pietro Val Lemina,7.31355518,44.90732828
1251,San Ponso,7.66751665,45.35081649
1252,San Raffaele Cimena,7.84869672,45.14722500
1253,San Sebastiano da Po,7.95346930,45.16644198
1254,San Secondo di Pinerolo,7.29864772,44.86656606
1255,Sant'Ambrogio di Torino,7.35931306,45.09968774
1256,Sant'Antonino di Susa,7.27350974,45.10708303
1257,Santena,7.77316006,44.94968716
1258,Sauze di Cesana,6.86049707,44.94044645
1259,Sauze d'Oulx,6.85824935,45.02808681
1260,Scalenghe,7.49796536,44.88830917
1261,Scarmagno,7.84071060,45.38582635
1262,Sciolze,7.87766236,45.09503651
1263,Sestriere,6.87655108,44.95764886
1264,Settimo Rottaro,7.99223087,45.40489983
1265,Settimo Torinese,7.77124007,45.13698893
1266,Settimo Vittone,7.83172100,45.54810664
1267,Sparone,7.54421421,45.41330062
1268,Strambinello,7.76866207,45.42324307
1269,Strambino,7.88062828,45.38458718
1270,Susa,7.04641962,45.13525075
1271,Tavagnasco,7.82261044,45.54322012
1272,Torino,7.68068748,45.07327450
1273,Torrazza Piemonte,7.97490120,45.21520992
1274,Torre Canavese,7.76053919,45.39182464
1275,Torre Pellice,7.22397861,44.82074148
1276,Trana,7.41730319,45.03709504
1277,Trausella,7.76450377,45.49022243
1278,Traversella,7.75041006,45.50940960
1279,Traves,7.42974781,45.27057879
1280,Trofarello,7.74030330,44.98596444
1281,Usseaux,7.02687343,45.04849799
1282,Usseglio,7.21722031,45.23272497
1283,Vaie,7.28663072,45.10189314
1284,Val della Torre,7.44941143,45.15556488
1285,Valgioie,7.33963962,45.07600826
1286,Vallo Torinese,7.49928924,45.22350106
1287,Valperga,7.65678710,45.37027102
1288,Valprato Soana,7.54896650,45.52237380
1289,Varisella,7.48902531,45.20984085
1290,Vauda Canavese,7.61820790,45.27924268
1291,Venaus,7.01194778,45.15470177
1292,Venaria Reale,7.63149732,45.13253740
1293,Verolengo,7.96715786,45.18904937
1294,Verrua Savoia,8.09314758,45.15655009
1295,Vestignè,7.95387863,45.38670164
1296,Vialfrè,7.81817187,45.38083894
1297,Vico Canavese,7.77942268,45.49432405
1298,Vidracco,7.75901516,45.43045472
1299,Vigone,7.49452417,44.84235593
1300,Villafranca Piemonte,7.50450846,44.78128218
1301,Villanova Canavese,7.55354045,45.24293558
1302,Villarbasse,7.46800102,45.04487159
1303,Villar Dora,7.38382219,45.11783797
1304,Villareggia,7.97850007,45.31101176
1305,Villar Focchiardo,7.22668959,45.10971506
1306,Villar Pellice,7.15827939,44.80859193
1307,Villar Perosa,7.24926893,44.92019309
1308,Villastellone,7.74535320,44.92155495
1309,Vinovo,7.63424154,44.94878443
1310,Virle Piemonte,7.56889069,44.86594197
1311,Vische,7.95138039,45.33156931
1312,Vistrorio,7.76941978,45.44109707
1313,Viù,7.37646792,45.23894208
1314,Volpiano,7.77555033,45.20189898
1315,Volvera,7.51230483,44.95502486
1316,Mappano,7.7070,45.1475
2002,Alagna Valsesia,7.93812982,45.85332586
2003,Albano Vercellese,8.38058282,45.42511503
2004,Alice Castello,8.07469466,45.36652862
2006,Arborio,8.38898545,45.49608576
2007,Asigliano Vercellese,8.40619426,45.26117617
2008,Balmuccia,8.13825637,45.81834722
2009,Balocco,8.28103358,45.45553463
2011,Bianzè,8.12006412,45.30737818
2014,Boccioleto,8.11329092,45.82998665
2015,Borgo d'Ale,8.05372704,45.34991763
2016,Borgosesia,8.27641052,45.71672956
2017,Borgo Vercelli,8.46637050,45.35715818
2019,Breia,8.30720564,45.76411748
2021,Buronzo,8.26833442,45.48211892
2025,Campertogno,8.03216717,45.79867325
2029,Carcoforo,8.04890161,45.90888987
2030,Caresana,8.50648564,45.22108416
2031,Caresanablot,8.38877273,45.35735225
2032,Carisio,8.19858607,45.40846100
2033,Casanova Elvo,8.29330690,45.39952964
2035,San Giacomo Vercellese,8.32534514,45.49741181
2038,Cellio,8.31309615,45.75546715
2041,Cervatto,8.16235419,45.88308084
2042,Cigliano,8.02148900,45.30955700
2043,Civiasco,8.29278728,45.80668518
2045,Collobiano,8.34853582,45.39712515
2047,Costanzana,8.37006540,45.23619745
2048,Cravagliana,8.20112963,45.84734738
2049,Crescentino,8.10258275,45.19232707
2052,Crova,8.21192995,45.33003762
2054,Desana,8.35745053,45.26873384
2057,Fobello,8.15891887,45.88955756
2058,Fontanetto Po,8.19171653,45.19339547
2059,Formigliana,8.29291060,45.42877725
2061,Gattinara,8.37128081,45.61734452
2062,Ghislarengo,8.38432306,45.52931694
2065,Greggio,8.38247553,45.45180309
2066,Guardabosone,8.25032253,45.70093910
2067,Lamporo,8.09755020,45.23008153
2068,Lenta,8.38444808,45.55556369
2070,Lignana,8.34604641,45.28529590
2071,Livorno Ferraris,8.08199764,45.28165932
2072,Lozzolo,8.32207950,45.62258776
2078,Mollia,8.03096665,45.81528283
2079,Moncrivello,7.99586116,45.33122991
2082,Motta de' Conti,8.52077102,45.19150237
2088,Olcenengo,8.31138984,45.36359420
2089,Oldenico,8.38272080,45.40235336
2090,Palazzolo Vercellese,8.23282434,45.18450002
2091,Pertengo,8.41762904,45.23562007
2093,Pezzana,8.48420194,45.26206373
2096,Pila,8.08081524,45.77024834
2097,Piode,8.05308685,45.76976604
2102,Postua,8.23149631,45.71418815
2104,Prarolo,8.47934379,45.28222769
2107,Quarona,8.26542166,45.75985229
2108,Quinto Vercellese,8.36218487,45.38047939
2110,Rassa,8.01419350,45.76862660
2111,Rima San Giuseppe,8.02339104,45.86531097
2112,Rimasco,8.06299590,45.85848339
2113,Rimella,8.18259236,45.90794146
2114,Riva Valdobbia,7.95382909,45.83327671
2115,Rive,8.41831930,45.21256687
2116,Roasio,8.28892846,45.60862395
2118,Ronsecco,8.27777195,45.25350322
2121,Rossa,8.12564508,45.83354703
2122,Rovasenda,8.31361503,45.53679031
2123,Sabbia,8.23633112,45.85685912
2126,Salasco,8.26378089,45.32528875
2127,Sali Vercellese,8.32968249,45.30933121
2128,Saluggia,8.01113811,45.23583395
2131,San Germano Vercellese,8.25094964,45.35018300
2133,Santhià,8.17435014,45.36692200
2134,Scopa,8.11316044,45.79171337
2135,Scopello,8.09484168,45.77367325
2137,Serravalle Sesia,8.31147526,45.68614932
2142,Stroppiana,8.45347729,45.23139550
2147,Tricerro,8.32514946,45.23379809
2148,Trino,8.29690047,45.19420619
2150,Tronzano Vercellese,8.17469273,45.34279040
2152,Valduggia,8.32785665,45.72638859
2156,Varallo,8.25621194,45.81403992
2158,Vercelli,8.42323431,45.32398135
2163,Villarboit,8.33686901,45.43665326
2164,Villata,8.43260279,45.38561063
2166,Vocca,8.18753037,45.83098292
3001,Agrate Conturbia,8.55992667,45.67598127
3002,Ameno,8.43942761,45.78878319
3006,Armeno,8.43917903,45.82196603
3008,Arona,8.55948977,45.76039239
3012,Barengo,8.51201322,45.57477500
3016,Bellinzago Novarese,8.63973111,45.57030363
3018,Biandrate,8.46370551,45.45378226
3019,Boca,8.40870545,45.67828729
3021,Bogogno,8.53449913,45.66716613
3022,Bolzano Novarese,8.44415269,45.76282586
3023,Borgolavezzaro,8.69926765,45.31838337
3024,Borgomanero,8.46298661,45.69887430
3025,Borgo Ticino,8.60392229,45.68806799
3026,Briga Novarese,8.45159151,45.73138349
3027,Briona,8.47981940,45.54219977
3030,Caltignaga,8.58791485,45.51708606
3032,Cameri,8.66224358,45.50102461
3036,Carpignano Sesia,8.41834081,45.53530620
3037,Casalbeltrame,8.46837851,45.43623977
3039,Casaleggio Novara,8.49266595,45.48630378
3040,Casalino,8.52273520,45.35768141
3041,Casalvolone,8.46436466,45.39945860
3042,Castellazzo Novarese,8.48870753,45.51399290
3043,Castelletto sopra Ticino,8.64237321,45.71405023
3044,Cavaglietto,8.50091213,45.60280053
3045,Cavaglio d'Agogna,8.48278611,45.61181220
3047,Cavallirio,8.39673650,45.66496084
3049,Cerano,8.78085515,45.41067427
3051,Colazza,8.49908518,45.79262548
3052,Comignago,8.56512314,45.71523940
3055,Cressa,8.50748369,45.64799409
3058,Cureggio,8.46136101,45.67513019
3060,Divignano,8.60149532,45.66227913
3062,Dormelletto,8.57318421,45.73016147
3065,Fara Novarese,8.45911220,45.55511789
3066,Fontaneto d'Agogna,8.48458276,45.63985923
3068,Galliate,8.69527266,45.47769535
3069,Garbagna Novarese,8.65967960,45.38665075
3070,Gargallo,8.42921545,45.72750435
3071,Gattico,8.52053275,45.70906459
3073,Ghemme,8.42009104,45.59781069
3076,Gozzano,8.43465086,45.74755669
3077,Granozzo con Monticello,8.57413671,45.36014053
3079,Grignasco,8.33970898,45.68190215
3082,Invorio,8.48673976,45.75590621
3083,Landiona,8.42216872,45.49690699
3084,Lesa,8.56484439,45.83011076
3088,Maggiora,8.42099488,45.69075412
3090,Mandello Vitta,8.45918595,45.49523236
3091,Marano Ticino,8.63193647,45.62982409
3093,Massino Visconti,8.53880817,45.82190383
3095,Meina,8.53760183,45.79003479
3097,Mezzomerico,8.60462006,45.62028414
3098,Miasino,8.43036112,45.80218966
3100,Momo,8.55537053,45.57391222
3103,Nebbiuno,8.52423877,45.80607594
3104,Nibbiola,8.65635253,45.37178540
3106,Novara,8.62191588,45.44588506
3108,Oleggio,8.63736389,45.59668789
3109,Oleggio Castello,8.52971174,45.74931605
3112,Orta San Giulio,8.40568474,45.79916255
3114,Paruzzaro,8.51345761,45.74868723
3115,Pella,8.38311698,45.79707067
3116,Pettenasco,8.40857519,45.81732142
3119,Pisano,8.51043727,45.79354856
3120,Pogno,8.38307485,45.75667233
3121,Pombia,8.63238880,45.64926665
3122,Prato Sesia,8.37377395,45.64787501
3129,Recetto,8.43608827,45.46080638
3130,Romagnano Sesia,8.38287620,45.63335002
3131,Romentino,8.72085352,45.46260428
3133,San Maurizio d'Opaglio,8.39095810,45.77247196
3134,San Nazzaro Sesia,8.42356660,45.43813129
3135,San Pietro Mosezzo,8.54347212,45.45561012
3138,Sillavengo,8.44052712,45.52045483
3139,Sizzano,8.43733340,45.57734631
3140,Soriso,8.40936492,45.74226936
3141,Sozzago,8.72097747,45.39781780
3143,Suno,8.54092449,45.63114506
3144,Terdobbiate,8.69509702,45.37635291
3146,Tornaco,8.71790663,45.35736427
3149,Trecate,8.73505551,45.43190444
3153,Vaprio d'Agogna,8.55405064,45.60353491
3154,Varallo Pombia,8.63305280,45.66670204
3157,Veruno,8.53051508,45.69094068
3158,Vespolate,8.66903813,45.34947293
3159,Vicolungo,8.46131719,45.47882953
3164,Vinzaglio,8.51840535,45.32365543
4001,Acceglio,6.99122231,44.47580767
4002,Aisone,7.22083358,44.31344859
4003,Alba,8.03569894,44.70092208
4004,Albaretto della Torre,8.06408216,44.59591514
4005,Alto,8.00368552,44.10828374
4006,Argentera,6.96937784,44.37958880
4007,Arguello,8.11067964,44.58292710
4008,Bagnasco,8.04258299,44.30207165
4009,Bagnolo Piemonte,7.31548217,44.75990270
4010,Baldissero d'Alba,7.91574918,44.75871300
4011,Barbaresco,8.08046453,44.72554836
4012,Barge,7.32339364,44.72522006
4013,Barolo,7.94180811,44.60988256
4014,Bastia Mondovì,7.89332172,44.44138607
4015,Battifollo,8.00948124,44.31917111
4016,Beinette,7.64570648,44.36566802
4017,Bellino,7.01716043,44.58060554
4018,Belvedere Langhe,7.97416757,44.49456526
4019,Bene Vagienna,7.83282512,44.54523956
4020,Benevello,8.10591872,44.62818908
4021,Bergolo,8.18352587,44.54801177
4022,Bernezzo,7.43531003,44.38860537
4023,Bonvicino,8.01592005,44.50362005
4024,Borgomale,8.13275549,44.62044163
4025,Borgo San Dalmazzo,7.48746357,44.32875997
4026,Bosia,8.14620308,44.60246692
4027,Bossolasco,8.05750263,44.52679083
4028,Boves,7.55199457,44.32981994
4029,Bra,7.85474763,44.69818228
4030,Briaglia,7.87698925,44.39511761
4031,Briga Alta,7.75076032,44.08321974
4032,Brondello,7.40513697,44.60005668
4033,Brossasco,7.36044207,44.57029687
4034,Busca,7.47352127,44.51369697
4035,Camerana,8.14079853,44.42266439
4036,Camo,8.19352184,44.69488958
4037,Canale,7.99140953,44.79720739
4038,Canosio,7.08139097,44.45532677
4039,Caprauna,7.95494044,44.11582328
4040,Caraglio,7.42762073,44.41771618
4041,Caramagna Piemonte,7.74117579,44.78043462
4042,Cardè,7.47821589,44.74417866
4043,Carrù,7.88006416,44.47859161
4044,Cartignano,7.28769499,44.47708439
4045,Casalgrasso,7.62496057,44.81950243
4046,Castagnito,8.03015252,44.75647805
4047,Casteldelfino,7.06903166,44.59097136
4048,Castellar,7.43636974,44.62157124
4049,Castelletto Stura,7.63905085,44.44422917
4050,Castelletto Uzzone,8.18598322,44.49257989
4051,Castellinaldo d'Alba,8.03153502,44.77533089
4052,Castellino Tanaro,7.98188704,44.42777401
4053,Castelmagno,7.21232892,44.40916447
4054,Castelnuovo di Ceva,8.13019641,44.35330865
4055,Castiglione Falletto,7.97903465,44.62333766
4056,Castiglione Tinella,8.18943117,44.72604642
4057,Castino,8.18121378,44.61699553
4058,Cavallerleone,7.66273569,44.73944316
4059,Cavallermaggiore,7.68774788,44.70785741
4060,Celle di Macra,7.17967333,44.48257098
4061,Centallo,7.59014854,44.50412404
4062,Ceresole Alba,7.82056601,44.79952425
4063,Cerretto Langhe,8.09783957,44.57433971
4064,Cervasca,7.46788805,44.38316033
4065,Cervere,7.79316738,44.63475191
4066,Ceva,8.03521716,44.38623533
4067,Cherasco,7.85820345,44.65222548
4068,Chiusa di Pesio,7.67788414,44.32477035
4069,Cigliè,7.92622597,44.43506854
4070,Cissone,8.03050943,44.56310368
4071,Clavesana,7.91198215,44.48214720
4072,Corneliano d'Alba,7.96129163,44.73553903
4073,Cortemilia,8.19186669,44.58086160
4074,Cossano Belbo,8.19855921,44.66906362
4075,Costigliole Saluzzo,7.48493751,44.56461241
4076,Cravanzana,8.12818957,44.57315552
4077,Crissolo,7.15718954,44.69910296
4078,Cuneo,7.55117163,44.39329624
4079,Demonte,7.29751308,44.31526154
4080,Diano d'Alba,8.02766887,44.65139204
4081,Dogliani,7.94516725,44.53009052
4082,Dronero,7.36331795,44.46697823
4083,Elva,7.08963389,44.53976498
4084,Entracque,7.39780279,44.24075683
4085,Envie,7.37219219,44.68175309
4086,Farigliano,7.91702082,44.51169894
4087,Faule,7.58066365,44.80542638
4088,Feisoglio,8.10417587,44.54335973
4089,Fossano,7.72487008,44.54939800
4090,Frabosa Soprana,7.80709202,44.28747375
4091,Frabosa Sottana,7.79831038,44.30202535
4092,Frassino,7.27564416,44.57135700
4093,Gaiola,7.40676156,44.33524752
4094,Gambasca,7.34741432,44.62937358
4095,Garessio,8.02988403,44.19729282
4096,Genola,7.66272590,44.58769184
4097,Gorzegno,8.13511748,44.51186000
4098,Gottasecca,8.16725259,44.46169553
4099,Govone,8.09995734,44.80485973
4100,Grinzane Cavour,7.98221368,44.65653790
4101,Guarene,8.03367466,44.73780446
4102,Igliano,8.01250347,44.44353291
4103,Isasca,7.38154761,44.58729447
4104,Lagnasco,7.55533712,44.62466066
4105,La Morra,7.93346395,44.63734577
4106,Lequio Berria,8.09767172,44.60460498
4107,Lequio Tanaro,7.88359880,44.56023249
4108,Lesegno,7.96650568,44.40123357
4109,Levice,8.15661951,44.53765937
4110,Limone Piemonte,7.57607947,44.20129244
4111,Lisio,7.97963402,44.30669736
4112,Macra,7.17920368,44.49985871
4113,Magliano Alfieri,8.06781101,44.76646823
4114,Magliano Alpi,7.79955227,44.45810047
4115,Mango,8.15033106,44.68461474
4116,Manta,7.48626156,44.61433199
4117,Marene,7.72915160,44.66149658
4118,Margarita,7.68685767,44.40264638
4119,Marmora,7.09449830,44.45749490
4120,Marsaglia,7.98298599,44.45218424
4121,Martiniana Po,7.36631509,44.62641683
4122,Melle,7.32058248,44.56205512
4123,Moiola,7.38887176,44.31969065
4124,Mombarcaro,8.08509313,44.46776296
4125,Mombasiglio,7.96999618,44.36331302
4126,Monastero di Vasco,7.82276111,44.34017655
4127,Monasterolo Casotto,7.94113913,44.33083516
4128,Monasterolo di Savigliano,7.62076965,44.68633537
4129,Monchiero,7.91814013,44.57304646
4130,Mondovì,7.81980578,44.38717713
4131,Monesiglio,8.11637954,44.46489547
4132,Monforte d'Alba,7.96840862,44.58233541
4133,Montà,7.96001468,44.81309155
4134,Montaldo di Mondovì,7.86584020,44.31946922
4135,Montaldo Roero,7.92446567,44.76856722
4136,Montanera,7.66557341,44.46197795
4137,Montelupo Albese,8.04638473,44.62306820
4138,Montemale di Cuneo,7.37281405,44.43769447
4139,Monterosso Grana,7.32391931,44.40888820
4140,Monteu Roero,7.93086916,44.78023621
4141,Montezemolo,8.14146684,44.37823953
4142,Monticello d'Alba,7.94100869,44.71829049
4143,Moretta,7.53692411,44.76390518
4144,Morozzo,7.71044647,44.42304028
4145,Murazzano,8.01884708,44.47375439
4146,Murello,7.60094237,44.75295967
4147,Narzole,7.87051966,44.59415651
4148,Neive,8.11549922,44.72631566
4149,Neviglie,8.11597640,44.69212361
4150,Niella Belbo,8.07912058,44.51329019
4151,Niella Tanaro,7.92135837,44.41482647
4152,Novello,7.92765526,44.58715702
4153,Nucetto,8.05891552,44.33940152
4154,Oncino,7.19025436,44.67649775
4155,Ormea,7.91069055,44.14859437
4156,Ostana,7.18848199,44.69221770
4157,Paesana,7.27655778,44.68544648
4158,Pagno,7.42993582,44.61374464
4159,Pamparato,7.91385092,44.27712579
4160,Paroldo,8.07131848,44.43167462
4161,Perletto,8.21407920,44.59899650
4162,Perlo,8.08360656,44.33309061
4163,Peveragno,7.61713926,44.33001233
4164,Pezzolo Valle Uzzone,8.19411000,44.53927650
4165,Pianfei,7.70975813,44.37049040
4166,Piasco,7.45740743,44.56855814
4167,Pietraporzio,7.03194297,44.34401168
4168,Piobesi d'Alba,7.97851256,44.73490945
4169,Piozzo,7.89242201,44.51576260
4170,Pocapaglia,7.88718583,44.71945971
4171,Polonghera,7.59607299,44.80335136
4172,Pontechianale,7.02831148,44.62198999
4173,Pradleves,7.28208627,44.41859801
4174,Prazzo,7.05543047,44.48307586
4175,Priero,8.09241941,44.37661760
4176,Priocca,8.06272749,44.79130724
4177,Priola,8.02242382,44.24597670
4178,Prunetto,8.14431165,44.48944911
4179,Racconigi,7.67598165,44.76782338
4180,Revello,7.38900592,44.65466177
4181,Rifreddo,7.34909777,44.65049802
4182,Rittana,7.40063509,44.35057088
4183,Roaschia,7.45613996,44.27013254
4184,Roascio,8.02254642,44.41716489
4185,Robilante,7.51116274,44.29422968
4186,Roburent,7.89020684,44.30499560
4187,Roccabruna,7.34074709,44.47629522
4188,Rocca Cigliè,7.95114507,44.44409132
4189,Rocca de' Baldi,7.74569773,44.43017736
4190,Roccaforte Mondovì,7.74587877,44.31842604
4191,Roccasparvera,7.44134173,44.34165607
4192,Roccavione,7.48125617,44.31440994
4193,Rocchetta Belbo,8.17527183,44.63713321
4194,Roddi,7.97610755,44.67845326
4195,Roddino,8.01873571,44.57410827
4196,Rodello,8.05931571,44.63061299
4197,Rossana,7.43260669,44.54249985
4198,Ruffia,7.60244401,44.70724824
4199,Sale delle Langhe,8.08345546,44.39706458
4200,Sale San Giovanni,8.07860651,44.39938022
4201,Saliceto,8.16679127,44.41327854
4202,Salmour,7.79212298,44.57815425
4203,Saluzzo,7.49084739,44.64702298
4204,Sambuco,7.07781003,44.33734246
4205,Sampeyre,7.18887350,44.57938316
4206,San Benedetto Belbo,8.05785091,44.48989293
4207,San Damiano Macra,7.25630891,44.48841462
4208,Sanfrè,7.80354961,44.75219136
4209,Sanfront,7.32024792,44.64583812
4210,San Michele Mondovì,7.90824846,44.37652817
4211,Sant'Albano Stura,7.72105290,44.50992775
4212,Santa Vittoria d'Alba,7.93315556,44.69653100
4213,Santo Stefano Belbo,8.23101616,44.70749115
4214,Santo Stefano Roero,7.93990949,44.78881971
4215,Savigliano,7.65747908,44.64801868
4216,Scagnello,7.98679354,44.33230692
4217,Scarnafigi,7.56692665,44.68175572
4218,Serralunga d'Alba,8.00061326,44.60922192
4219,Serravalle Langhe,8.05766192,44.56091813
4220,Sinio,8.02156085,44.59948317
4221,Somano,8.01140208,44.53589341
4222,Sommariva del Bosco,7.78426580,44.77128582
4223,Sommariva Perno,7.90557574,44.74319256
4224,Stroppo,7.12591238,44.50564217
4225,Tarantasca,7.54506036,44.49341620
4226,Torre Bormida,8.15561060,44.56310269
4227,Torre Mondovì,7.90035121,44.35204035
4228,Torre San Giorgio,7.52994094,44.73582111
4229,Torresina,8.03476395,44.43220895
4230,Treiso,8.08684916,44.68937390
4231,Trezzo Tinella,8.10758330,44.67695385
4232,Trinità,7.75803560,44.50746901
4233,Valdieri,7.39613571,44.27764211
4234,Valgrana,7.38061464,44.40960891
4235,Valloriate,7.37456517,44.33814875
4236,Valmala,7.34621408,44.54428912
4237,Venasca,7.39495176,44.56254284
4238,Verduno,7.93376689,44.66812061
4239,Vernante,7.53370331,44.24556459
4240,Verzuolo,7.48312762,44.59955425
4241,Vezza d'Alba,7.99609095,44.76390017
4242,Vicoforte,7.86498818,44.37495568
4243,Vignolo,7.46989353,44.35955809
4244,Villafalletto,7.53889467,44.54428113
4245,Villanova Mondovì,7.76209311,44.34445968
4246,Villanova Solaro,7.57603223,44.72963767
4247,Villar San Costanzo,7.38029785,44.48300637
4248,Vinadio,7.17433860,44.30709073
4249,Viola,7.96623533,44.29047791
4250,Vottignasco,7.57821349,44.56481499
5001,Agliano Terme,8.25110248,44.79070477
5002,Albugnano,7.97152830,45.07801783
5003,Antignano,8.13378727,44.84544206
5004,Aramengo,8.00198071,45.09973309
5005,Asti,8.20414255,44.89912921
5006,Azzano d'Asti,8.26765893,44.87469786
5007,Baldichieri d'Asti,8.09110376,44.90699703
5008,Belveglio,8.33010424,44.83048705
5009,Berzano di San Pietro,7.95404954,45.09490798
5010,Bruno,8.44027285,44.79063282
5011,Bubbio,8.29360889,44.66384285
5012,Buttigliera d'Asti,7.95051282,45.02254621
5013,Calamandrana,8.33562741,44.73654927
5014,Calliano,8.25732636,45.00626143
5015,Calosso,8.22718552,44.73947663
5016,Camerano Casasco,8.09088049,44.98865953
5017,Canelli,8.28820301,44.71987867
5018,Cantarana,8.03072454,44.90038386
5019,Capriglio,8.00816420,45.00422942
5020,Casorzo,8.33413974,45.02281734
5021,Cassinasco,8.30166091,44.68863849
5022,Castagnole delle Lanze,8.14917820,44.75491789
5023,Castagnole Monferrato,8.30609193,44.96144381
5024,Castel Boglione,8.38119567,44.72061965
5025,Castell'Alfero,8.20944516,44.98270999
5026,Castellero,8.07474856,44.92400563
5027,Castelletto Molina,8.43283445,44.75030841
5028,Castello di Annone,8.31368944,44.87876512
5029,Castelnuovo Belbo,8.41226127,44.80181402
5030,Castelnuovo Calcea,8.28563618,44.78821506
5031,Castelnuovo Don Bosco,7.96362449,45.04134189
5032,Castel Rocchero,8.41596578,44.71879737
5033,Cellarengo,7.94500108,44.86599664
5034,Celle Enomondo,8.12297302,44.85663333
5035,Cerreto d'Asti,8.03676471,45.04976869
5036,Cerro Tanaro,8.36020871,44.87267038
5037,Cessole,8.24320136,44.64799259
5038,Chiusano d'Asti,8.11780752,44.98505458
5039,Cinaglio,8.10016648,44.97484379
5040,Cisterna d'Asti,8.00482090,44.82617595
5041,Coazzolo,8.14514109,44.72821487
5042,Cocconato,8.03923935,45.08718184
5044,Corsione,8.14513636,45.00074703
5045,Cortandone,8.05757115,44.95969083
5046,Cortanze,8.08959339,45.01522505
5047,Cortazzone,8.06192379,44.97953515
5048,Cortiglione,8.35856506,44.82301876
5049,Cossombrato,8.13752723,44.99412244
5050,Costigliole d'Asti,8.18062795,44.78822155
5051,Cunico,8.09721152,45.04043582
5052,Dusino San Michele,7.97228137,44.92018688
5053,Ferrere,7.99385509,44.87340426
5054,Fontanile,8.42218563,44.75337907
5055,Frinco,8.17536565,45.00558693
5056,Grana,8.29912278,44.99805155
5057,Grazzano Badoglio,8.31355703,45.03891548
5058,Incisa Scapaccino,8.38094573,44.80839835
5059,Isola d'Asti,8.17721468,44.82947547
5060,Loazzolo,8.25852546,44.66896792
5061,Maranzana,8.47682029,44.75977053
5062,Maretto,8.03423581,44.94435642
5063,Moasca,8.27793953,44.76255023
5064,Mombaldone,8.32920396,44.56923733
5065,Mombaruzzo,8.44866667,44.77102638
5066,Mombercelli,8.29442730,44.81697574
5067,Monale,8.07164087,44.93609673
5068,Monastero Bormida,8.32462019,44.64752301
5069,Moncalvo,8.26346587,45.05139958
5070,Moncucco Torinese,7.93215605,45.06788298
5071,Mongardino,8.21869885,44.84884344
5072,Montabone,8.39030985,44.69860169
5073,Montafia,8.02515243,44.98919545
5074,Montaldo Scarampi,8.25739020,44.82860036
5075,Montechiaro d'Asti,8.11238215,45.00821528
5076,Montegrosso d'Asti,8.23874286,44.82241214
5077,Montemagno,8.32400690,44.98403470
5079,Moransengo,8.02486752,45.11523742
5080,Nizza Monferrato,8.35650287,44.77361901
5081,Olmo Gentile,8.24703487,44.58555786
5082,Passerano Marmorito,8.01879254,45.05639415
5083,Penango,8.25013241,45.03325898
5084,Piea,8.07208963,45.02529094
5085,Pino d'Asti,7.98625503,45.05819329
5086,Piovà Massaia,8.05094462,45.05448578
5087,Portacomaro,8.25851231,44.95711305
5088,Quaranti,8.44907922,44.75104701
5089,Refrancore,8.34271288,44.93757725
5090,Revigliasco d'Asti,8.15836480,44.85873263
5091,Roatto,8.02661283,44.95150123
5092,Robella,8.10005600,45.10233231
5093,Rocca d'Arazzo,8.28581546,44.87387745
5094,Roccaverano,8.27193131,44.59299081
5095,Rocchetta Palafea,8.34572398,44.70695062
5096,Rocchetta Tanaro,8.34432710,44.85886821
5097,San Damiano d'Asti,8.06523095,44.83463979
5098,San Giorgio Scarampi,8.24202367,44.61132016
5099,San Martino Alfieri,8.10937091,44.81852007
5100,San Marzano Oliveto,8.29616262,44.75322439
5101,San Paolo Solbrito,7.97278064,44.95226938
5103,Scurzolengo,8.27826008,44.96570842
5104,Serole,8.25972366,44.55375446
5105,Sessame,8.33782926,44.66894067
5106,Settime,8.11289201,44.96408940
5107,Soglio,8.07812480,44.99743108
5108,Tigliole,8.07546861,44.88727476
5109,Tonco,8.18984201,45.02410808
5110,Tonengo,8.00209647,45.11794499
5111,Vaglio Serra,8.33893337,44.79653568
5112,Valfenera,7.96509857,44.89687406
5113,Vesime,8.22822517,44.63719563
5114,Viale,8.05229051,44.99926995
5115,Viarigi,8.35869057,44.98045098
5116,Vigliano d'Asti,8.23189059,44.83510515
5117,Villafranca d'Asti,8.03221225,44.91367137
5118,Villanova d'Asti,7.93722176,44.94188973
5119,Villa San Secondo,8.13525532,45.00518407
5120,Vinchio,8.31730154,44.80740659
5121,Montiglio Monferrato,8.09773822,45.06741302
6001,Acqui Terme,8.46975213,44.67660776
6002,Albera Ligure,9.06842676,44.70091651
6003,Alessandria,8.61540116,44.91297351
6004,Alfiano Natta,8.20845976,45.04723245
6005,Alice Bel Colle,8.45120062,44.72578802
6006,Alluvioni Cambiò,8.77257309,44.99538211
6007,Altavilla Monferrato,8.37571250,44.99289950
6008,Alzano Scrivia,8.88128698,45.01755597
6009,Arquata Scrivia,8.88574473,44.68673968
6010,Avolasca,8.96523824,44.80296911
6011,Balzola,8.40254698,45.18319612
6012,Basaluzzo,8.70593403,44.76829415
6013,Bassignana,8.73594306,45.00321277
6014,Belforte Monferrato,8.66160356,44.62436936
6015,Bergamasco,8.45521038,44.82710536
6016,Berzano di Tortona,8.95059588,44.87645689
6017,Bistagno,8.36858665,44.66179377
6018,Borghetto di Borbera,8.94535017,44.73105311
6019,Borgoratto Alessandrino,8.53942061,44.83649029
6020,Borgo San Martino,8.52362138,45.08909030
6021,Bosco Marengo,8.67599099,44.82209118
6022,Bosio,8.79191248,44.64778929
6023,Bozzole,8.60487718,45.06787600
6024,Brignano-Frascata,9.04079602,44.81195142
6025,Cabella Ligure,9.09629270,44.67308273
6026,Camagna Monferrato,8.43033685,45.01784708
6027,Camino,8.28704469,45.16220888
6028,Cantalupo Ligure,9.04435913,44.71897373
6029,Capriata d'Orba,8.68893776,44.72996604
6030,Carbonara Scrivia,8.87077531,44.84976758
6031,Carentino,8.47046969,44.82887672
6032,Carezzano,8.90000819,44.80675404
6033,Carpeneto,8.60631572,44.67725550
6034,Carrega Ligure,9.17561244,44.61907401
6035,Carrosio,8.83233109,44.65940501
6036,Cartosio,8.41852913,44.59120157
6037,Casal Cermelli,8.62242452,44.83570480
6038,Casaleggio Boiro,8.73168460,44.63430041
6039,Casale Monferrato,8.45260603,45.13502772
6040,Casalnoceto,8.98198552,44.91316314
6041,Casasco,9.00605114,44.82822593
6042,Cassano Spinola,8.86300797,44.76619504
6043,Cassine,8.52548300,44.74821538
6044,Cassinelle,8.56047456,44.60684663
6045,Castellania,8.93045228,44.79884656
6046,Castellar Guidobono,8.94673509,44.90626728
6047,Castellazzo Bormida,8.57711652,44.84547363
6048,Castelletto d'Erro,8.39441096,44.62508569
6049,Castelletto d'Orba,8.70225531,44.68556836
6050,Castelletto Merli,8.24055620,45.07520084
6051,Castelletto Monferrato,8.56624165,44.97986948
6052,Castelnuovo Bormida,8.54620340,44.74368801
6053,Castelnuovo Scrivia,8.88163236,44.97942413
6054,Castelspina,8.58241540,44.80447097
6055,Cavatore,8.45241293,44.63096191
6056,Cella Monte,8.39068715,45.07480127
6057,Cereseto,8.31694083,45.08601084
6058,Cerreto Grue,8.93197656,44.84186342
6059,Cerrina Monferrato,8.21524770,45.12019189
6060,Coniolo,8.37204723,45.14690814
6061,Conzano,8.45605851,45.02054219
6062,Costa Vescovato,8.92901622,44.81820576
6063,Cremolino,8.58583986,44.63749767
6064,Cuccaro Monferrato,8.45548032,44.99071371
6065,Denice,8.33401144,44.59866478
6066,Dernice,9.05007934,44.76760327
6067,Fabbrica Curone,9.15418217,44.75482545
6068,Felizzano,8.43580291,44.89804289
6069,Fraconalto,8.87795991,44.59215730
6070,Francavilla Bisio,8.73165894,44.73589007
6071,Frascaro,8.53265060,44.82711359
6072,Frassinello Monferrato,8.38660956,45.03150897
6073,Frassineto Po,8.53610328,45.13401839
6074,Fresonara,8.68484071,44.78273653
6075,Frugarolo,8.67906229,44.83898630
6076,Fubine Monferrato,8.42541266,44.96556464
6077,Gabiano,8.19315039,45.15893956
6078,Gamalero,8.54305210,44.80892438
6079,Garbagna,8.99903571,44.78094061
6080,Gavazzana,8.88625438,44.77567686
6081,Gavi,8.80360629,44.68829965
6082,Giarole,8.56785699,45.06065480
6083,Gremiasco,9.10473865,44.79704719
6084,Grognardo,8.49150662,44.62993500
6085,Grondona,8.96254082,44.69719799
6086,Guazzora,8.84491063,45.01359818
6087,Isola Sant'Antonio,8.85040859,45.03087376
6088,Lerma,8.71251661,44.63497457
6089,Lu,8.48397707,45.00183653
6090,Malvicino,8.41406649,44.55965891
6091,Masio,8.40801092,44.86939440
6092,Melazzo,8.42690281,44.64399212
6093,Merana,8.29752453,44.51779681
6094,Mirabello Monferrato,8.52345012,45.03574687
6095,Molare,8.60108309,44.62062138
6096,Molino dei Torti,8.89203048,45.02354187
6097,Mombello Monferrato,8.25088371,45.13302907
6098,Momperone,9.03447924,44.83864164
6099,Moncestino,8.15840028,45.15485139
6100,Mongiardino Ligure,9.06126316,44.63855849
6101,Monleale,8.98436980,44.88507491
6102,Montacuto,9.10687493,44.76675329
6103,Montaldeo,8.73068330,44.66653728
6104,Montaldo Bormida,8.58900574,44.68345546
6105,Montecastello,8.68660651,44.94895015
6106,Montechiaro d'Acqui,8.37967335,44.59498476
6107,Montegioco,8.95408341,44.83779799
6108,Montemarzino,8.99313137,44.84848618
6109,Morano sul Po,8.36562081,45.16403878
6110,Morbello,8.51001025,44.60347745
6111,Mornese,8.75619133,44.63908249
6112,Morsasco,8.54909592,44.66456561
6113,Murisengo,8.13746600,45.08344752
6114,Novi Ligure,8.78709895,44.76018447
6115,Occimiano,8.50665552,45.06017802
6116,Odalengo Grande,8.16672164,45.10952242
6117,Odalengo Piccolo,8.20951508,45.07192832
6118,Olivola,8.36696226,45.03769495
6119,Orsara Bormida,8.56243644,44.69008849
6120,Ottiglio,8.33914672,45.05183484
6121,Ovada,8.64638692,44.63746785
6122,Oviglio,8.48672464,44.85980406
6123,Ozzano Monferrato,8.37622616,45.10189355
6124,Paderna,8.89000207,44.82072604
6125,Pareto,8.38286675,44.51574319
6126,Parodi Ligure,8.75861800,44.67082366
6127,Pasturana,8.74903841,44.75067788
6128,Pecetto di Valenza,8.67046810,44.98971739
6129,Pietra Marazzi,8.67055420,44.94414223
6130,Piovera,8.73499960,44.95967234
6131,Pomaro Monferrato,8.59519185,45.06391823
6132,Pontecurone,8.93593783,44.95884144
6133,Pontestura,8.33254095,45.14364169
6134,Ponti,8.36523345,44.62741706
6135,Ponzano Monferrato,8.26621831,45.08446050
6136,Ponzone,8.45960731,44.58640594
6137,Pozzol Groppo,9.02931411,44.87745949
6138,Pozzolo Formigaro,8.78154639,44.79386971
6139,Prasco,8.55285026,44.64241408
6140,Predosa,8.65923977,44.75272978
6141,Quargnento,8.48770761,44.94484127
6142,Quattordio,8.40598711,44.89920749
6143,Ricaldone,8.46963348,44.73208972
6144,Rivalta Bormida,8.55025847,44.71137561
6145,Rivarone,8.71569485,44.97765973
6146,Roccaforte Ligure,9.02776944,44.67771211
6147,Rocca Grimalda,8.64728666,44.67110005
6148,Rocchetta Ligure,9.05002771,44.70654712
6149,Rosignano Monferrato,8.39905893,45.07984539
6150,Sala Monferrato,8.35817633,45.07539836
6151,Sale,8.80897055,44.98474756
6152,San Cristoforo,8.74999574,44.69241358
6153,San Giorgio Monferrato,8.41485690,45.10778635
6154,San Salvatore Monferrato,8.56669038,44.99480511
6155,San Sebastiano Curone,9.06524327,44.78561153
6156,Sant'Agata Fossili,8.91893465,44.78591123
6157,Sardigliano,8.90767410,44.75429733
6158,Sarezzano,8.91536110,44.86755745
6159,Serralunga di Crea,8.28186060,45.10074125
6160,Serravalle Scrivia,8.85899164,44.71947066
6161,Sezzadio,8.57272968,44.78558679
6162,Silvano d'Orba,8.67101282,44.68557224
6163,Solero,8.50770965,44.91976152
6164,Solonghello,8.28183774,45.13095204
6165,Spigno Monferrato,8.33530262,44.54303249
6166,Spineto Scrivia,8.87238248,44.83762769
6167,Stazzano,8.86739327,44.72725820
6168,Strevi,8.52245997,44.69866281
6169,Tagliolo Monferrato,8.66825224,44.63908436
6170,Tassarolo,8.76950107,44.72658554
6171,Terruggia,8.44217858,45.08305643
6172,Terzo,8.42105351,44.66953696
6173,Ticineto,8.55555016,45.09748798
6174,Tortona,8.86015893,44.89474291
6175,Treville,8.35975854,45.09714157
6176,Trisobbio,8.58627568,44.66230296
6177,Valenza,8.64622619,45.01446704
6178,Valmacca,8.58233724,45.10046486
6179,Vignale Monferrato,8.39653661,45.01093201
6180,Vignole Borbera,8.89055880,44.70829074
6181,Viguzzolo,8.92008036,44.90492247
6182,Villadeati,8.16969885,45.07244218
6183,Villalvernia,8.85664062,44.81760550
6184,Villamiroglio,8.16975728,45.13444627
6185,Villanova Monferrato,8.47846784,45.18178964
6186,Villaromagnano,8.88713485,44.85109184
6187,Visone,8.50327751,44.66206230
6188,Volpedo,8.98338300,44.88880456
6189,Volpeglino,8.95896398,44.89305041
6190,Voltaggio,8.84265701,44.62013284
7001,Allein,7.27247864,45.81299906
7002,Antey-Saint-André,7.59320879,45.80495538
7003,Aosta,7.32014937,45.73750285
7004,Arnad,7.72127572,45.64497675
7005,Arvier,7.16930437,45.70355949
7006,Avise,7.14132997,45.70870165
7007,Ayas,7.68815712,45.81404412
7008,Aymavilles,7.24054522,45.70136784
7009,Bard,7.74663423,45.60795710
7010,Bionaz,7.42307118,45.87406789
7011,Brissogne,7.40457445,45.72718069
7012,Brusson,7.73281238,45.75861830
7013,Challand-Saint-Anselme,7.73656482,45.71639945
7014,Challand-Saint-Victor,7.70646173,45.68977437
7015,Chambave,7.54994156,45.74433587
7016,Chamois,7.62028471,45.83835687
7017,Champdepraz,7.65775453,45.68574043
7018,Champorcher,7.62079406,45.62361260
7019,Charvensod,7.32540756,45.72043469
7020,Châtillon,7.61324866,45.74956660
7021,Cogne,7.35589684,45.60810335
7022,Courmayeur,6.97211063,45.79304937
7023,Donnas,7.76743948,45.60348451
7024,Doues,7.30664971,45.81924591
7025,Emarèse,7.70044113,45.72469931
7026,Etroubles,7.23295436,45.81970089
7027,Fénis,7.49429922,45.73609933
7028,Fontainemore,7.86097348,45.64900060
7029,Gaby,7.88234959,45.71286294
7030,Gignod,7.29617804,45.77825204
7031,Gressan,7.28944079,45.72162078
7032,Gressoney-La-Trinité,7.82308558,45.82724198
7033,Gressoney-Saint-Jean,7.82758597,45.77699719
7034,Hône,7.73573316,45.61185509
7035,Introd,7.18721781,45.69147016
7036,Issime,7.85421598,45.68545132
7037,Issogne,7.68441737,45.65394996
7038,Jovençan,7.27497757,45.71396310
7039,La Magdeleine,7.61909957,45.81079736
7040,La Salle,7.07259636,45.74688856
7041,La Thuile,6.94907203,45.71683466
7042,Lillianes,7.84507084,45.63276575
7043,Montjovet,7.67418740,45.70421567
7044,Morgex,7.03606923,45.75698191
7045,Nus,7.46694170,45.73920602
7046,Ollomont,7.31090328,45.84910177
7047,Oyace,7.38250599,45.85069846
7048,Perloz,7.80860292,45.61311380
7049,Pollein,7.35717211,45.72804929
7050,Pontboset,7.68765237,45.60643060
7051,Pontey,7.59134931,45.73789995
7052,Pont-Saint-Martin,7.79779800,45.59981254
7053,Pré-Saint-Didier,6.98635298,45.76376415
7054,Quart,7.41560289,45.74067954
7055,Rhêmes-Notre-Dame,7.11852890,45.56970721
7056,Rhêmes-Saint-Georges,7.15524759,45.65525593
7057,Roisan,7.31057909,45.78442330
7058,Saint-Christophe,7.35781441,45.74833047
7059,Saint-Denis,7.55719219,45.75217771
7060,Saint-Marcel,7.44828666,45.73241560
7061,Saint-Nicolas,7.16788714,45.71661750
7062,Saint-Oyen,7.21240783,45.82462227
7063,Saint-Pierre,7.22628899,45.71043364
7064,Saint-Rhémy-en-Bosses,7.18206384,45.82305880
7065,Saint-Vincent,7.64750229,45.75022016
7066,Sarre,7.25764516,45.71794426
7067,Torgnon,7.57120579,45.80147160
7068,Valgrisenche,7.06475581,45.63033740
7069,Valpelline,7.32855375,45.82642294
7070,Valsavarenche,7.20831202,45.59199131
7071,Valtournenche,7.62270907,45.87708460
7072,Verrayes,7.53225413,45.76144401
7073,Verrès,7.68994077,45.66872714
7074,Villeneuve,7.20773981,45.70275195
8001,Airole,7.55373372,43.87193229
8002,Apricale,7.66047436,43.88046591
8003,Aquila d'Arroscia,8.00538059,44.08368752
8004,Armo,7.91400884,44.08737513
8005,Aurigo,7.92256375,43.98301362
8006,Badalucco,7.84704751,43.91563657
8007,Bajardo,7.71823202,43.90350463
8008,Bordighera,7.67188845,43.77976186
8009,Borghetto d'Arroscia,7.98182679,44.05746703
8010,Borgomaro,7.94489614,43.97560219
8011,Camporosso,7.62833199,43.81518186
8012,Caravonica,7.95887794,43.99234154
8013,Carpasio,7.86676773,43.95985266
8014,Castellaro,7.86831607,43.86469941
8015,Castel Vittorio,7.67318527,43.92874403
8016,Ceriana,7.77294636,43.88094776
8017,Cervo,8.11439209,43.92533848
8018,Cesio,7.97497180,44.00771437
8019,Chiusanico,7.99164010,43.97324089
8020,Chiusavecchia,7.98332700,43.96789160
8021,Cipressa,7.93409540,43.85295315
8022,Civezza,7.95128441,43.87933711
8023,Cosio d'Arroscia,7.83116754,44.07581718
8024,Costarainera,7.94124004,43.85453541
8025,Diano Arentino,8.04227440,43.94799843
8026,Diano Castello,8.06665921,43.92417641
8027,Diano Marina,8.08179249,43.91003445
8028,Diano San Pietro,8.06878914,43.93115748
8029,Dolceacqua,7.62346525,43.84811905
8030,Dolcedo,7.95177621,43.90694017
8031,Imperia,8.02785030,43.88570648
8032,Isolabona,7.63886282,43.87999064
8033,Lucinasco,7.96275211,43.96777563
8034,Mendatica,7.80555956,44.07637352
8035,Molini di Triora,7.77432953,43.99014112
8036,Montalto Ligure,7.84447343,43.92775131
8037,Montegrosso Pian Latte,7.81784428,44.06660991
8038,Olivetta San Michele,7.51550262,43.87980841
8039,Ospedaletti,7.71770138,43.80074234
8040,Perinaldo,7.67423944,43.86619925
8041,Pietrabruna,7.90347589,43.88997458
8042,Pieve di Teco,7.91521507,44.04699787
8043,Pigna,7.66338032,43.93300970
8044,Pompeiana,7.88852820,43.85278181
8045,Pontedassio,8.01269410,43.94044493
8046,Pornassio,7.87095357,44.07026852
8047,Prelà,7.93699140,43.92622371
8048,Ranzo,8.01446794,44.05956136
8049,Rezzo,7.87215721,44.02031375
8050,Riva Ligure,7.88171211,43.83752404
8051,Rocchetta Nervina,7.60029478,43.89017646
8052,San Bartolomeo al Mare,8.10216833,43.92851288
8053,San Biagio della Cima,7.64984983,43.81878782
8054,San Lorenzo al Mare,7.96388149,43.85360939
8055,Sanremo,7.78463261,43.82100004
8056,Santo Stefano al Mare,7.89907803,43.83724835
8057,Seborga,7.69416032,43.82588301
8058,Soldano,7.65407956,43.82672282
8059,Taggia,7.85052289,43.84362744
8060,Terzorio,7.89824760,43.85284036
8061,Triora,7.76211239,43.99381326
8062,Vallebona,7.66683606,43.81328065
8063,Vallecrosia,7.64378720,43.79318232
8064,Vasia,7.95410759,43.93302326
8065,Ventimiglia,7.60863489,43.79003749
8066,Vessalico,7.96224656,44.04622744
8067,Villa Faraldi,8.09146690,43.96709172
9001,Alassio,8.17296106,44.00803855
9002,Albenga,8.21294718,44.04910721
9003,Albissola Marina,8.50318133,44.32724829
9004,Albisola Superiore,8.51033951,44.33968692
9005,Altare,8.34393140,44.33478282
9006,Andora,8.14003459,43.95824758
9007,Arnasco,8.10696787,44.07799865
9008,Balestrino,8.17458666,44.12489729
9009,Bardineto,8.12938875,44.19209639
9010,Bergeggi,8.44410089,44.24906108
9011,Boissano,8.22123144,44.13424252
9012,Borghetto Santo Spirito,8.24198802,44.11538413
9013,Borgio Verezzi,8.30456090,44.15987456
9014,Bormida,8.23261121,44.27865707
9015,Cairo Montenotte,8.27417261,44.39971795
9016,Calice Ligure,8.29426933,44.20491797
9017,Calizzano,8.11537146,44.23519600
9018,Carcare,8.29082811,44.35796680
9019,Casanova Lerrone,8.04827694,44.03159416
9020,Castelbianco,8.07479916,44.11321558
9021,Castelvecchio di Rocca Barbena,8.11550590,44.13038323
9022,Celle Ligure,8.54522349,44.34206161
9023,Cengio,8.20840962,44.38756350
9024,Ceriale,8.23206591,44.09635674
9025,Cisano sul Neva,8.14496038,44.08729345
9026,Cosseria,8.23445622,44.36851305
9027,Dego,8.31038187,44.44959522
9028,Erli,8.10533097,44.13656262
9029,Finale Ligure,8.34360444,44.16902304
9030,Garlenda,8.09679584,44.03360058
9031,Giustenice,8.24621583,44.17232581
9032,Giusvalla,8.39372680,44.44947912
9033,Laigueglia,8.15814419,43.97461904
9034,Loano,8.25977713,44.12917319
9035,Magliolo,8.25018606,44.19163662
9036,Mallare,8.29757667,44.29146605
9037,Massimino,8.07116002,44.29939342
9038,Millesimo,8.20581826,44.36442319
9039,Mioglia,8.41127280,44.48986122
9040,Murialdo,8.16135683,44.31617201
9041,Nasino,8.02784153,44.11511382
9042,Noli,8.41618422,44.20566323
9043,Onzo,8.05141127,44.06959174
9044,Orco Feglino,8.32516188,44.21956675
9045,Ortovero,8.09108827,44.05382692
9046,Osiglia,8.20061895,44.28079135
9047,Pallare,8.27496416,44.32763192
9048,Piana Crixia,8.30751198,44.48527201
9049,Pietra Ligure,8.28282700,44.14886132
9050,Plodio,8.24352274,44.35653151
9051,Pontinvrea,8.43457011,44.44489686
9052,Quiliano,8.41137969,44.29342208
9053,Rialto,8.27472128,44.21960792
9054,Roccavignale,8.19201219,44.36188556
9055,Sassello,8.48994519,44.47903665
9056,Savona,8.48110865,44.30750461
9057,Spotorno,8.41946267,44.22717185
9058,Stella,8.49307801,44.39689198
9059,Stellanello,8.05933040,44.00031785
9060,Testico,8.03097385,44.00536918
9061,Toirano,8.20719338,44.12691774
9062,Tovo San Giacomo,8.26853791,44.17670181
9063,Urbe,8.59238717,44.48775393
9064,Vado Ligure,8.43628063,44.26933816
9065,Varazze,8.57639806,44.35999892
9066,Vendone,8.07425949,44.07401137
9067,Vezzi Portio,8.36194732,44.22894653
9068,Villanova d'Albenga,8.14308072,44.04590077
9069,Zuccarello,8.11565808,44.11134732
10001,Arenzano,8.68226057,44.40179322
10002,Avegno,9.15871776,44.38230695
10003,Bargagli,9.08833870,44.44464301
10004,Bogliasco,9.06978128,44.37822158
10005,Borzonasca,9.38679744,44.42220304
10006,Busalla,8.94498048,44.57080117
10007,Camogli,9.15713844,44.34680493
10008,Campo Ligure,8.69762914,44.53838818
10009,Campomorone,8.89267577,44.50669550
10010,Carasco,9.34404046,44.35131469
10011,Casarza Ligure,9.45345696,44.27462061
10012,Casella,8.99919877,44.53499584
10013,Castiglione Chiavarese,9.51354812,44.27471107
10014,Ceranesi,8.89459705,44.50393511
10015,Chiavari,9.32401708,44.31671072
10016,Cicagna,9.23594891,44.40860000
10017,Cogoleto,8.64632983,44.38946889
10018,Cogorno,9.35217274,44.32864607
10019,Coreglia Ligure,9.26698739,44.39204480
10020,Crocefieschi,9.02281748,44.58482451
10021,Davagna,9.08668974,44.46474451
10022,Fascia,9.23626672,44.56449009
10023,Favale di Malvaro,9.25802513,44.45203897
10024,Fontanigorda,9.30494807,44.54655632
10025,Genova,8.93269920,44.41149314
10026,Gorreto,9.29209495,44.60496900
10027,Isola del Cantone,8.95597042,44.64584548
10028,Lavagna,9.34403674,44.30715764
10029,Leivi,9.31821640,44.34552337
10030,Lorsica,9.27433441,44.43234464
10031,Lumarzo,9.13732081,44.44356861
10032,Masone,8.71169286,44.50363621
10033,Mele,8.74802865,44.44540292
10034,Mezzanego,9.37690562,44.38369740
10035,Mignanego,8.91468328,44.52764357
10036,Moconesi,9.21234739,44.41952882
10037,Moneglia,9.49012691,44.23854867
10038,Montebruno,9.24979047,44.52709330
10039,Montoggio,9.04419890,44.51558055
10040,Ne,9.39842041,44.34436715
10041,Neirone,9.19090098,44.45425495
10042,Orero,9.27460151,44.40723425
10043,Pieve Ligure,9.08689032,44.37467039
10044,Portofino,9.20722887,44.30409182
10045,Propata,9.18488278,44.56471709
10046,Rapallo,9.23174684,44.35017452
10047,Recco,9.14354904,44.36219307
10048,Rezzoaglio,9.38665818,44.52570666
10049,Ronco Scrivia,8.95498801,44.60820328
10050,Rondanina,9.21760907,44.56235710
10051,Rossiglione,8.67053508,44.56211352
10052,Rovegno,9.27867307,44.57711393
10053,San Colombano Certenoli,9.31312353,44.37173186
10054,Santa Margherita Ligure,9.20992464,44.33486974
10055,Sant'Olcese,8.96767968,44.48366578
10056,Santo Stefano d'Aveto,9.45092663,44.54782889
10057,Savignone,8.98795560,44.56373567
10058,Serra Riccò,8.93604499,44.50784963
10059,Sestri Levante,9.39316235,44.26990054
10060,Sori,9.10436515,44.37278803
10061,Tiglieto,8.62044541,44.52535713
10062,Torriglia,9.15777778,44.51901939
10063,Tribogna,9.19559972,44.41627446
10064,Uscio,9.16328775,44.41320130
10065,Valbrevenna,9.06502603,44.55652959
10066,Vobbia,9.03982341,44.59976660
10067,Zoagli,9.26724315,44.33703410
11001,Ameglia,9.95726865,44.06574700
11002,Arcola,9.90585039,44.11461457
11003,Beverino,9.76927899,44.19406922
11004,Bolano,9.89528858,44.18886645
11005,Bonassola,9.58410218,44.18335984
11006,Borghetto di Vara,9.72160948,44.22351961
11007,Brugnato,9.72502225,44.23686542
11008,Calice al Cornoviglio,9.83583113,44.24247820
11009,Carro,9.60825868,44.27271193
11010,Carrodano,9.65615912,44.24207789
11011,Castelnuovo Magra,10.01820241,44.09846668
11012,Deiva Marina,9.52056080,44.21886353
11013,Follo,9.86214784,44.16270731
11014,Framura,9.55435807,44.20891861
11015,La Spezia,9.82818970,44.10704991
11016,Lerici,9.91098294,44.07603286
11017,Levanto,9.61246496,44.16997519
11018,Maissana,9.53501799,44.33667186
11019,Monterosso al Mare,9.65613667,44.14629552
11020,Luni,10.04202918,44.08497076
11021,Pignone,9.72404607,44.17915951
11022,Portovenere,9.83700513,44.05579219
11023,Riccò del Golfo di Spezia,9.76342359,44.15555832
11024,Riomaggiore,9.73814999,44.09973171
11025,Rocchetta di Vara,9.75689058,44.25119026
11026,Santo Stefano di Magra,9.91509755,44.16241113
11027,Sarzana,9.95967625,44.11292985
11028,Sesta Godano,9.67572402,44.29399517
11029,Varese Ligure,9.59567948,44.37773090
11030,Vernazza,9.68373233,44.13522997
11031,Vezzano Ligure,9.88447876,44.14135989
11032,Zignago,9.74495848,44.27754123
12001,Agra,8.77144627,46.03408765
12002,Albizzate,8.80354799,45.72373624
12003,Angera,8.57505473,45.77248072
12004,Arcisate,8.85979602,45.85936588
12005,Arsago Seprio,8.73102942,45.68799132
12006,Azzate,8.79686119,45.78197525
12007,Azzio,8.70629682,45.88536153
12008,Barasso,8.75810385,45.84046799
12009,Bardello,8.69824990,45.83504320
12010,Bedero Valcuvia,8.79441299,45.91263579
12011,Besano,8.88994859,45.88923148
12012,Besnate,8.76940011,45.70035494
12013,Besozzo,8.66515456,45.85161622
12014,Biandronno,8.71232632,45.81939412
12015,Bisuschio,8.87035829,45.87241440
12016,Bodio Lomnago,8.75143295,45.78988982
12017,Brebbia,8.64986902,45.82856738
12018,Bregano,8.69246682,45.82367289
12019,Brenta,8.68415016,45.89520908
12020,Brezzo di Bedero,8.71839172,45.97788916
12021,Brinzio,8.78680655,45.88913557
12022,Brissago-Valtravaglia,8.74641128,45.94962111
12023,Brunello,8.79580220,45.76615745
12024,Brusimpiano,8.88960338,45.94718903
12025,Buguggiate,8.80675732,45.78525778
12026,Busto Arsizio,8.85494196,45.61508411
12027,Cadegliano-Viconago,8.84466504,45.95877781
12028,Cadrezzate,8.64290340,45.79438636
12029,Cairate,8.87081304,45.69202754
12030,Cantello,8.89696935,45.82105782
12031,Caravate,8.65547691,45.87950555
12032,Cardano al Campo,8.77457849,45.64661310
12033,Carnago,8.83627171,45.71828365
12034,Caronno Pertusella,9.04786804,45.59681856
12035,Caronno Varesino,8.83098855,45.73879258
12036,Casale Litta,8.74033681,45.76739057
12037,Casalzuigno,8.70550787,45.90326961
12038,Casciago,8.78437936,45.83477437
12039,Casorate Sempione,8.74031796,45.67171363
12040,Cassano Magnago,8.82082527,45.67438100
12041,Cassano Valcuvia,8.76817676,45.93257700
12042,Castellanza,8.89758795,45.61147087
12043,Castello Cabiaglio,8.75481888,45.89254824
12044,Castelseprio,8.86127391,45.71695339
12045,Castelveccana,8.66483192,45.94653339
12046,Castiglione Olona,8.86808089,45.75638484
12047,Castronno,8.81288955,45.74696138
12048,Cavaria con Premezzo,8.79768031,45.69454899
12049,Cazzago Brabbia,8.73527589,45.79535134
12050,Cislago,8.97062131,45.66174873
12051,Cittiglio,8.66871307,45.89466280
12052,Clivio,8.93358998,45.86445858
12053,Cocquio-Trevisago,8.69654650,45.85787962
12054,Comabbio,8.67466593,45.77263671
12055,Comerio,8.74709374,45.84262230
12056,Cremenaga,8.80659213,45.98924397
12057,Crosio della Valle,8.76756905,45.76163488
12058,Cuasso al Monte,8.87981540,45.91440418
12059,Cugliate-Fabiasco,8.82065422,45.94703032
12060,Cunardo,8.80225408,45.93781498
12061,Curiglia con Monteviasco,8.80481670,46.06064966
12062,Cuveglio,8.73583523,45.90596577
12063,Cuvio,8.73138709,45.89803114
12064,Daverio,8.77150586,45.77710951
12065,Dumenza,8.78485575,46.02277146
12066,Duno,8.73854155,45.91405764
12067,Fagnano Olona,8.87410817,45.66960007
12068,Ferno,8.75884994,45.61026875
12069,Ferrera di Varese,8.78818329,45.93232904
12070,Gallarate,8.79329925,45.66018302
12071,Galliate Lombardo,8.76853346,45.78629177
12072,Gavirate,8.72477105,45.84113211
12073,Gazzada Schianno,8.82558358,45.78025066
12074,Gemonio,8.67884895,45.87741982
12075,Gerenzano,8.99858062,45.63843744
12076,Germignaga,8.72680431,45.99340192
12077,Golasecca,8.65509793,45.69685700
12078,Gorla Maggiore,8.89352477,45.66609126
12079,Gorla Minore,8.89650863,45.64326093
12080,Gornate Olona,8.85910112,45.73774934
12081,Grantola,8.77076670,45.94960692
12082,Inarzo,8.73642610,45.78677616
12083,Induno Olona,8.83856569,45.85196664
12084,Ispra,8.61026566,45.81617289
12085,Jerago con Orago,8.79253825,45.70524944
12086,Lavena Ponte Tresa,8.86107511,45.96092516
12087,Laveno-Mombello,8.61535619,45.91578637
12088,Leggiuno,8.61933120,45.87562703
12089,Lonate Ceppino,8.87627239,45.70528783
12090,Lonate Pozzolo,8.75237386,45.60005908
12091,Lozza,8.85705579,45.77548006
12092,Luino,8.74242933,46.00249108
12093,Luvinate,8.77246432,45.83955502
12095,Malgesso,8.67614110,45.82769458
12096,Malnate,8.88111094,45.79952624
12097,Marchirolo,8.83576960,45.95158873
12098,Marnate,8.90387061,45.62847701
12099,Marzio,8.85776946,45.93784232
12100,Masciago Primo,8.78080342,45.91642152
12101,Mercallo,8.67210331,45.74672525
12102,Mesenzana,8.75881336,45.94701873
12103,Montegrino Valtravaglia,8.76812149,45.97345415
12104,Monvalle,8.63204654,45.85759299
12105,Morazzone,8.82937436,45.76916148
12106,Mornago,8.75239721,45.74759383
12107,Oggiona con Santo Stefano,8.81846582,45.69730244
12108,Olgiate Olona,8.89079261,45.62776512
12109,Origgio,9.01782113,45.59963152
12110,Orino,8.71292670,45.88178979
12111,Osmate,8.65520119,45.78866971
12113,Porto Ceresio,8.90627938,45.90401736
12114,Porto Valtravaglia,8.68034374,45.96082147
12115,Rancio Valcuvia,8.77019605,45.91632586
12116,Ranco,8.57472943,45.79845478
12117,Saltrio,8.92438188,45.87355994
12118,Samarate,8.78259875,45.63092833
12119,Saronno,9.03640459,45.62373958
12120,Sesto Calende,8.63164235,45.72379362
12121,Solbiate Arno,8.81346700,45.72056917
12122,Solbiate Olona,8.88734116,45.65359629
12123,Somma Lombardo,8.70435241,45.68377665
12124,Sumirago,8.77937261,45.74028467
12125,Taino,8.61659007,45.76498844
12126,Ternate,8.69479817,45.78237860
12127,Tradate,8.90569481,45.71375993
12128,Travedona-Monate,8.67726088,45.80570507
12129,Tronzano Lago Maggiore,8.73551864,46.09146610
12130,Uboldo,9.00306867,45.61071287
12131,Valganna,8.82394745,45.90276705
12132,Varano Borghi,8.70193740,45.77779049
12133,Varese,8.82286834,45.81701677
12134,Vedano Olona,8.88635653,45.77671212
12136,Venegono Inferiore,8.89943301,45.73587963
12137,Venegono Superiore,8.90171645,45.74912455
12138,Vergiate,8.69540153,45.72453550
12139,Viggiù,8.90704038,45.87201080
12140,Vizzola Ticino,8.68505079,45.63123483
12141,Sangiano,8.63179044,45.87629120
12142,Maccagno con Pino e Veddasca,8.74237,46.0426
13003,Albavilla,9.18930004,45.80109470
13004,Albese con Cassano,9.16474347,45.79543363
13005,Albiolo,8.93736248,45.80680091
13006,Alserio,9.19837284,45.77868888
13007,Alzate Brianza,9.18202575,45.76698007
13009,Anzano del Parco,9.19875952,45.77086446
13010,Appiano Gentile,8.97949173,45.73500438
13011,Argegno,9.12740292,45.94508355
13012,Arosio,9.20766723,45.71664742
13013,Asso,9.26941885,45.86165523
13015,Barni,9.26396688,45.91087559
13021,Bene Lario,9.18360351,46.02862520
13022,Beregazzo con Figliaro,8.95087680,45.77587949
13023,Binago,8.92256563,45.78468601
13024,Bizzarone,8.94596475,45.83503924
13025,Blessagno,9.09739094,45.95989389
13026,Blevio,9.10486477,45.84064094
13028,Bregnano,9.06252406,45.69896270
13029,Brenna,9.18775301,45.74164179
13030,Brienno,9.13139045,45.91174236
13032,Brunate,9.09641584,45.81977176
13034,Bulgarograsso,9.01101248,45.74813449
13035,Cabiate,9.16670282,45.67319795
13036,Cadorago,9.03374726,45.72390380
13037,Caglio,9.23631564,45.87057233
13038,Cagno,8.92405315,45.80876673
13040,Campione d'Italia,8.97075400,45.97007944
13041,Cantù,9.12658065,45.73938659
13042,Canzo,9.27350212,45.85003757
13043,Capiago Intimiano,9.12430870,45.77212280
13044,Carate Urio,9.12239702,45.87196643
13045,Carbonate,8.94040214,45.68506128
13046,Carimate,9.11525094,45.70268568
13047,Carlazzo,9.15649403,46.04919611
13048,Carugo,9.18915441,45.70996915
13050,Casasco d'Intelvi,9.07493421,45.94424398
13052,Caslino d'Erba,9.22712175,45.83756065
13053,Casnate con Bernate,9.07465560,45.75679233
13055,Cassina Rizzardi,9.03038994,45.75103988
13058,Castelmarte,9.23335971,45.83250887
13059,Castelnuovo Bozzente,8.94137967,45.76345124
13060,Castiglione d'Intelvi,9.09127875,45.95530894
13062,Cavargna,9.11202583,46.09067552
13063,Cerano d'Intelvi,9.08764297,45.94446407
13064,Cermenate,9.08268731,45.69856700
13065,Cernobbio,9.07435334,45.83962461
13068,Cirimido,9.01108636,45.69881381
13071,Claino con Osteno,9.08434077,46.00691802
13074,Colonno,9.15409988,45.95773383
13075,Como,9.08515955,45.80999120
13077,Corrido,9.13701384,46.04741939
13083,Cremia,9.27072570,46.08579750
13084,Cucciago,9.09150332,45.73888869
13085,Cusino,9.15275144,46.07437799
13087,Dizzasco,9.10146455,45.94387236
13089,Domaso,9.32846683,46.15194609
13090,Dongo,9.27949844,46.12302711
13092,Dosso del Liro,9.27369623,46.16368321
13095,Erba,9.22318311,45.81193507
13097,Eupilio,9.26770263,45.81692297
13098,Faggeto Lario,9.15983766,45.85807982
13099,Faloppio,8.96320128,45.81217463
13100,Fenegrò,9.00273087,45.70159962
13101,Figino Serenza,9.12719392,45.71163141
13102,Fino Mornasco,9.04857887,45.74611655
13106,Garzeno,9.24985634,46.13409064
13107,Gera Lario,9.37110185,46.17062506
13110,Grandate,9.05829996,45.77389370
13111,Grandola ed Uniti,9.20713269,46.03131732
13113,Griante,9.23500949,45.99694371
13114,Guanzate,9.01094873,45.72431329
13118,Inverigo,9.21493527,45.73292730
13119,Laglio,9.14007012,45.88352177
13120,Laino,9.07385525,45.98329717
13121,Lambrugo,9.24151448,45.75846534
13123,Lasnigo,9.26407017,45.88068666
13126,Lezzeno,9.19108571,45.94546302
13128,Limido Comasco,8.98270779,45.68970324
13129,Lipomo,9.12147915,45.79479996
13130,Livo,9.30419652,46.16890738
13131,Locate Varesino,8.93081757,45.69035206
13133,Lomazzo,9.04014928,45.69902477
13134,Longone al Segrino,9.25099763,45.81724782
13135,Luisago,9.04345668,45.76121718
13136,Lurago d'Erba,9.22473624,45.75348513
13137,Lurago Marinone,8.98394626,45.70780673
13138,Lurate Caccivio,9.00067971,45.76555430
13139,Magreglio,9.26189473,45.92002394
13143,Mariano Comense,9.18251093,45.69709757
13144,Maslianico,9.04846523,45.84256390
13145,Menaggio,9.23891075,46.02110324
13147,Merone,9.24511630,45.78638465
13152,Moltrasio,9.09584337,45.85915189
13153,Monguzzo,9.23216904,45.78282650
13154,Montano Lucino,9.04127980,45.78630139
13155,Montemezzo,9.37698070,46.17849115
13157,Montorfano,9.14449546,45.78540322
13159,Mozzate,8.95594336,45.67498965
13160,Musso,9.27367815,46.11081893
13161,Nesso,9.15900161,45.91072746
13163,Novedrate,9.12348667,45.69757654
13165,Olgiate Comasco,8.96748481,45.78582872
13169,Oltrona di San Mamette,8.97597509,45.75805508
13170,Orsenigo,9.18506195,45.77829952
13178,Peglio,9.29479046,46.16017984
13183,Pianello del Lario,9.27647456,46.10038478
13184,Pigra,9.12646377,45.95734691
13185,Plesio,9.22786354,46.04417749
13186,Pognana Lario,9.15783719,45.87739682
13187,Ponna,9.09401197,45.98963883
13188,Ponte Lambro,9.22491745,45.82699345
13189,Porlezza,9.11981421,46.03641282
13192,Proserpio,9.24886541,45.82765082
13193,Pusiano,9.28214374,45.81477830
13195,Rezzago,9.24860210,45.86672680
13197,Rodero,8.91338826,45.82263059
13199,Ronago,8.98249961,45.82976518
13201,Rovellasca,9.05229640,45.66794466
13202,Rovello Porro,9.03981948,45.65439932
13203,Sala Comacina,9.16599583,45.96426220
13204,San Bartolomeo Val Cavargna,9.14622273,46.08250497
13205,San Fedele Intelvi,9.07651397,45.96921287
13206,San Fermo della Battaglia,9.0485,45.8096
13207,San Nazzaro Val Cavargna,9.13064701,46.08922511
13211,Schignano,9.10236459,45.92790729
13212,Senna Comasco,9.10732605,45.76332515
13215,Solbiate,8.93483499,45.79234044
13216,Sorico,9.37978706,46.17212137
13217,Sormano,9.24707675,45.87943907
13218,Stazzona,9.27725961,46.13898602
13222,Tavernerio,9.15042839,45.79755247
13223,Torno,9.11892139,45.85871468
13226,Trezzone,9.35533528,46.17146264
13227,Turate,9.00121400,45.65506841
13228,Uggiate-Trevano,8.96174753,45.82330253
13229,Valbrona,9.29677259,45.87778782
13232,Valmorea,8.93063084,45.81328901
13233,Val Rezzo,9.11062175,46.07228986
13234,Valsolda,9.05613267,46.02446056
13236,Veleso,9.18087640,45.90874583
13238,Veniano,8.98498564,45.71628916
13239,Vercana,9.33043302,46.16001500
13242,Vertemate con Minoprio,9.07216730,45.72516720
13245,Villa Guardia,9.02591509,45.77472871
13246,Zelbio,9.18089193,45.90503059
13248,San Siro,9.25851049,46.05521640
13249,Gravedona ed Uniti,9.30622961,46.14810750
13250,Bellagio,9.2459,45.9627
13251,Colverde,9.00494,45.8105
13252,Tremezzina,9.21350,45.98231
13253,Alta Valle Intelvi,9.0271,45.9848
14001,Albaredo per San Marco,9.59043893,46.10292543
14002,Albosaggia,9.85465398,46.14739800
14003,Andalo Valtellino,9.47301339,46.13447907
14004,Aprica,10.15206343,46.15334799
14005,Ardenno,9.65172236,46.17276047
14006,Bema,9.56456455,46.10831825
14007,Berbenno di Valtellina,9.74318959,46.16872282
14008,Bianzone,10.10930218,46.18393421
14009,Bormio,10.37559509,46.47015993
14010,Buglio in Monte,9.67539142,46.18335411
14011,Caiolo,9.81705673,46.15231836
14012,Campodolcino,9.35431096,46.40213345
14013,Caspoggio,9.86176989,46.26472617
14014,Castello dell'Acqua,10.01578984,46.14548538
14015,Castione Andevenno,9.80029723,46.17286210
14016,Cedrasco,9.76800410,46.14931462
14017,Cercino,9.50818301,46.15777754
14018,Chiavenna,9.40548756,46.32102771
14019,Chiesa in Valmalenco,9.84832637,46.26376909
14020,Chiuro,9.98921231,46.16955671
14021,Cino,9.48531084,46.15842853
14022,Civo,9.58121409,46.15634566
14023,Colorina,9.73346320,46.15184527
14024,Cosio Valtellino,9.54986826,46.13038313
14025,Dazio,9.60020195,46.16072439
14026,Delebio,9.45925496,46.13715640
14027,Dubino,9.46088113,46.15299771
14028,Faedo Valtellino,9.90632697,46.15308224
14029,Forcola,9.66106927,46.15823034
14030,Fusine,9.75010748,46.14946685
14031,Gerola Alta,9.55022548,46.06002756
14032,Gordona,9.36858614,46.29168540
14033,Grosio,10.27571813,46.29730226
14034,Grosotto,10.25713150,46.27878002
14035,Madesimo,9.34417550,46.42815069
14036,Lanzada,9.87391438,46.26939010
14037,Livigno,10.13481042,46.53867334
14038,Lovero,10.23029598,46.23084025
14039,Mantello,9.48804765,46.15290306
14040,Mazzo di Valtellina,10.25480299,46.25648281
14041,Mello,9.54426446,46.15462874
14043,Mese,9.37945672,46.30445337
14044,Montagna in Valtellina,9.90064979,46.17824643
14045,Morbegno,9.56978082,46.13045582
14046,Novate Mezzola,9.44682240,46.22198251
14047,Pedesina,9.54952524,46.08222157
14048,Piantedo,9.43150447,46.13392594
14049,Piateda,9.93888683,46.15975234
14050,Piuro,9.42085210,46.32946842
14051,Poggiridenti,9.92865687,46.17586738
14052,Ponte in Valtellina,9.97748966,46.17438989
14053,Postalesio,9.77656146,46.17378415
14054,Prata Camportaccio,9.39499831,46.30639156
14055,Rasura,9.55292206,46.10074327
14056,Rogolo,9.48792786,46.13629947
14057,Samolaco,9.39512316,46.24421886
14058,San Giacomo Filippo,9.37042769,46.33714147
14059,Sernio,10.20332533,46.22510846
14060,Sondalo,10.32367779,46.33202816
14061,Sondrio,9.87147489,46.17099260
14062,Spriana,9.86446932,46.22014856
14063,Talamona,9.60947261,46.13751073
14064,Tartano,9.67931191,46.10531855
14065,Teglio,10.06328021,46.17226169
14066,Tirano,10.17531500,46.21687062
14067,Torre di Santa Maria,9.85209570,46.23261617
14068,Tovo di Sant'Agata,10.24667088,46.24504363
14069,Traona,9.52678241,46.14687842
14070,Tresivio,9.94538135,46.17469556
14071,Valdidentro,10.29680566,46.48933294
14072,Valdisotto,10.35511049,46.43167153
14073,Valfurva,10.41086041,46.46307994
14074,Val Masino,9.63663600,46.21108357
14075,Verceia,9.45276066,46.19663273
14076,Vervio,10.24053168,46.25285098
14077,Villa di Chiavenna,9.48896973,46.33123766
14078,Villa di Tirano,10.13320677,46.20268316
15002,Abbiategrasso,8.91748563,45.39857615
15005,Albairate,8.93517393,45.41870614
15007,Arconate,8.85151512,45.54155555
15009,Arese,9.07857580,45.54987207
15010,Arluno,8.95002987,45.50899319
15011,Assago,9.13114880,45.40436068
15012,Bareggio,8.99381888,45.47645894
15014,Basiano,9.46820192,45.57442098
15015,Basiglio,9.16147420,45.36271707
15016,Bellinzago Lombardo,9.44597053,45.54083028
15019,Bernate Ticino,8.81592589,45.47932974
15022,Besate,8.96731763,45.31224654
15024,Binasco,9.09965859,45.33219808
15026,Boffalora sopra Ticino,8.82849071,45.46435927
15027,Bollate,9.11765508,45.54384321
15032,Bresso,9.18762977,45.53760014
15035,Bubbiano,9.01336985,45.32732507
15036,Buccinasco,9.10757505,45.42126896
15038,Buscate,8.81258989,45.54600142
15040,Bussero,9.37205136,45.53791825
15041,Busto Garolfo,8.88340873,45.54605784
15042,Calvignasco,9.02086669,45.33179509
15044,Cambiago,9.42416597,45.57336649
15046,Canegrate,8.92457328,45.57254954
15050,Carpiano,9.27463974,45.34164161
15051,Carugate,9.33843416,45.54960324
15055,Casarile,9.10320454,45.31759199
15058,Casorezzo,8.89904940,45.52420100
15059,Cassano d'Adda,9.52054616,45.52652047
15060,Cassina de' Pecchi,9.36445401,45.51996566
15061,Cassinetta di Lugagnano,8.90680090,45.42212844
15062,Castano Primo,8.77635835,45.55121165
15070,Cernusco sul Naviglio,9.33502744,45.52420326
15071,Cerro al Lambro,9.33846435,45.33157234
15072,Cerro Maggiore,8.95071180,45.59344478
15074,Cesano Boscone,9.09327345,45.44593779
15076,Cesate,9.07544168,45.59500977
15077,Cinisello Balsamo,9.21357368,45.55836354
15078,Cisliano,8.98607940,45.44604503
15081,Cologno Monzese,9.27516655,45.52979668
15082,Colturano,9.34922924,45.38189911
15085,Corbetta,8.92189794,45.46753305
15086,Cormano,9.17254222,45.54301244
15087,Cornaredo,9.02583153,45.50196836
15093,Corsico,9.10863096,45.43184871
15096,Cuggiono,8.82157381,45.50692962
15097,Cusago,9.03350632,45.44666694
15098,Cusano Milanino,9.18157036,45.55073318
15099,Dairago,8.86615879,45.56810463
15101,Dresano,9.36121873,45.37386953
15103,Gaggiano,9.03451722,45.40571729
15105,Garbagnate Milanese,9.07748677,45.57560674
15106,Gessate,9.43675493,45.55548598
15108,Gorgonzola,9.40541159,45.53026195
15110,Grezzago,9.49442413,45.59197707
15112,Gudo Visconti,8.99924951,45.37320485
15113,Inveruno,8.85360485,45.51294461
15114,Inzago,9.48224972,45.54114755
15115,Lacchiarella,9.13737385,45.32117579
15116,Lainate,9.02714484,45.57145592
15118,Legnano,8.91854994,45.59413716
15122,Liscate,9.40946947,45.48132241
15125,Locate di Triulzi,9.22117365,45.35766067
15130,Magenta,8.88342560,45.46610604
15131,Magnago,8.80052532,45.58059715
15134,Marcallo con Casone,8.86750142,45.48437101
15136,Masate,9.46650825,45.56842201
15139,Mediglia,9.32377394,45.40122623
15140,Melegnano,9.32425217,45.35753074
15142,Melzo,9.42398030,45.49793248
15144,Mesero,8.85387846,45.49826845
15146,Milano,9.19034740,45.46679408
15150,Morimondo,8.95607819,45.35379301
15151,Motta Visconti,8.99299798,45.29019224
15154,Nerviano,8.97084999,45.55398759
15155,Nosate,8.72646999,45.55078138
15157,Novate Milanese,9.13588075,45.53282247
15158,Noviglio,9.07078309,45.35609013
15159,Opera,9.21145887,45.37791048
15164,Ossona,8.89458275,45.50398861
15165,Ozzero,8.92292595,45.36877272
15166,Paderno Dugnano,9.16606767,45.56855160
15167,Pantigliate,9.35392876,45.43969396
15168,Parabiago,8.95238691,45.55801413
15169,Paullo,9.39939608,45.41702165
15170,Pero,9.08902213,45.51080482
15171,Peschiera Borromeo,9.31109409,45.43176867
15172,Pessano con Bornago,9.38762275,45.55027632
15173,Pieve Emanuele,9.19968696,45.35117871
15175,Pioltello,9.32813782,45.49677508
15176,Pogliano Milanese,8.99355069,45.53725726
15177,Pozzo d'Adda,9.49955002,45.57394857
15178,Pozzuolo Martesana,9.45199534,45.51240233
15179,Pregnana Milanese,9.01001946,45.51743762
15181,Rescaldina,8.94754597,45.61654739
15182,Rho,9.04021698,45.52890587
15183,Robecchetto con Induno,8.76291649,45.53494485
15184,Robecco sul Naviglio,8.89040620,45.43756541
15185,Rodano,9.35708365,45.47318177
15188,Rosate,9.01680511,45.34835080
15189,Rozzano,9.15292695,45.38101963
15191,San Colombano al Lambro,9.48925035,45.18132946
15192,San Donato Milanese,9.26614911,45.41696210
15194,San Giorgio su Legnano,8.91647570,45.57653352
15195,San Giuliano Milanese,9.28492451,45.40022835
15200,Santo Stefano Ticino,8.91935219,45.48778115
15201,San Vittore Olona,8.94382391,45.58760398
15202,San Zenone al Lambro,9.35836311,45.32647936
15204,Sedriano,8.97088206,45.48755545
15205,Segrate,9.29293241,45.49082418
15206,Senago,9.11743158,45.57519908
15209,Sesto San Giovanni,9.23651246,45.53352962
15210,Settala,9.38688134,45.45468517
15211,Settimo Milanese,9.05677434,45.48074151
15213,Solaro,9.07951970,45.61677245
15219,Trezzano Rosa,9.48954108,45.58497981
15220,Trezzano sul Naviglio,9.06913584,45.41867651
15221,Trezzo sull'Adda,9.51924401,45.61015321
15222,Tribiano,9.36826311,45.40419814
15224,Truccazzano,9.46626196,45.48357110
15226,Turbigo,8.73520842,45.52847138
15229,Vanzago,9.00065442,45.52649482
15230,Vaprio d'Adda,9.53346804,45.57645829
15235,Vermezzo,8.98057958,45.39681572
15236,Vernate,9.06042559,45.31588074
15237,Vignate,9.37703718,45.49636828
15242,Vimodrone,9.28709221,45.51432793
15243,Vittuone,8.95330350,45.48777405
15244,Vizzolo Predabissi,9.34657618,45.35700041
15246,Zelo Surrigone,8.98468488,45.38689115
15247,Zibido San Giacomo,9.10587711,45.35966489
15248,Villa Cortese,8.88568965,45.56550040
15249,Vanzaghello,8.78555599,45.57775891
15250,Baranzate,9.11386757,45.52729576
16001,Adrara San Martino,9.94824970,45.69819924
16002,Adrara San Rocco,9.95771458,45.71217274
16003,Albano Sant'Alessandro,9.76623620,45.68645495
16004,Albino,9.79693450,45.76059116
16005,Almè,9.61756690,45.74006437
16006,Almenno San Bartolomeo,9.57826907,45.74829449
16007,Almenno San Salvatore,9.58738459,45.74973808
16008,Alzano Lombardo,9.72580631,45.72747077
16009,Ambivere,9.54722545,45.71859384
16010,Antegnate,9.79245129,45.48444261
16011,Arcene,9.61367879,45.57551324
16012,Ardesio,9.92964900,45.93819796
16013,Arzago d'Adda,9.56429523,45.47970041
16014,Averara,9.63115452,45.98855080
16015,Aviatico,9.76892181,45.79280510
16016,Azzano San Paolo,9.67632432,45.66191569
16017,Azzone,10.11281471,45.97902681
16018,Bagnatica,9.78137877,45.66367408
16019,Barbata,9.77623374,45.47490603
16020,Bariano,9.70701505,45.51477813
16021,Barzana,9.56703564,45.73364503
16022,Bedulita,9.55092365,45.79064007
16023,Berbenno,9.56832347,45.81171214
16024,Bergamo,9.66842453,45.69441368
16025,Berzo San Fermo,9.90029675,45.71817000
16026,Bianzano,9.91778785,45.77337870
16027,Blello,9.56433704,45.83691780
16028,Bolgare,9.82023830,45.63185923
16029,Boltiere,9.57823378,45.59977641
16030,Bonate Sopra,9.55923638,45.68308830
16031,Bonate Sotto,9.56130516,45.66636307
16032,Borgo di Terzo,9.89141094,45.72095531
16033,Bossico,10.04486839,45.82701072
16034,Bottanuco,9.50359425,45.64081122
16035,Bracca,9.70781335,45.82266222
16036,Branzi,9.75868016,46.00494814
16037,Brembate,9.55516253,45.60388463
16038,Brembate di Sopra,9.57758711,45.71627848
16040,Brignano Gera d'Adda,9.64789634,45.54451470
16041,Brumano,9.50061272,45.85462791
16042,Brusaporto,9.76126081,45.67082667
16043,Calcinate,9.80155201,45.61977118
16044,Calcio,9.85508435,45.50766222
16046,Calusco d'Adda,9.47138472,45.68834716
16047,Calvenzano,9.59815751,45.49463312
16048,Camerata Cornello,9.65566453,45.89956035
16049,Canonica d'Adda,9.54175897,45.57456366
16050,Capizzone,9.56852652,45.78452319
16051,Capriate San Gervasio,9.52730102,45.60916831
16052,Caprino Bergamasco,9.48158177,45.74646782
16053,Caravaggio,9.64310613,45.49713767
16055,Carobbio degli Angeli,9.82862581,45.67045623
16056,Carona,9.78549341,46.02183878
16057,Carvico,9.47982813,45.70685592
16058,Casazza,9.90631523,45.75151263
16059,Casirate d'Adda,9.56659968,45.49235035
16060,Casnigo,9.86745342,45.81634563
16061,Cassiglio,9.61212713,45.96685843
16062,Castelli Calepio,9.90225371,45.64152654
16063,Castel Rozzone,9.62373758,45.55543684
16064,Castione della Presolana,10.03640944,45.90774598
16065,Castro,10.06877391,45.80380375
16066,Cavernago,9.76373349,45.62380299
16067,Cazzano Sant'Andrea,9.88223113,45.81122174
16068,Cenate Sopra,9.82417576,45.71174379
16069,Cenate Sotto,9.82395442,45.69842732
16070,Cene,9.82557194,45.77943252
16071,Cerete,9.99497475,45.86768981
16072,Chignolo d'Isola,9.52722734,45.66512539
16073,Chiuduno,9.85376247,45.64690256
16074,Cisano Bergamasco,9.47436152,45.74238525
16075,Ciserano,9.60072632,45.58667048
16076,Cividate al Piano,9.82979510,45.55425697
16077,Clusone,9.94697311,45.89156953
16078,Colere,10.08572191,45.97390225
16079,Cologno al Serio,9.70610192,45.57940957
16080,Colzate,9.85631135,45.81595823
16081,Comun Nuovo,9.66473652,45.62325078
16082,Corna Imagna,9.54447510,45.83152482
16083,Cortenuova,9.78579765,45.53862530
16084,Costa di Mezzate,9.79445546,45.66292809
16085,Costa Valle Imagna,9.50566120,45.80079491
16086,Costa Volpino,10.09399319,45.82794219
16087,Covo,9.76854314,45.50113193
16088,Credaro,9.92901266,45.65844869
16089,Curno,9.61132252,45.69154232
16090,Cusio,9.60347890,45.98943086
16091,Dalmine,9.60117345,45.64796557
16092,Dossena,9.69696495,45.87917249
16093,Endine Gaiano,9.97649310,45.79018606
16094,Entratico,9.87476548,45.70548346
16096,Fara Gera d'Adda,9.53074769,45.55086391
16097,Fara Olivana con Sola,9.74973966,45.49516206
16098,Filago,9.55385295,45.63626990
16099,Fino del Monte,9.99215462,45.89045330
16100,Fiorano al Serio,9.84166374,45.79948279
16101,Fontanella,9.80044757,45.47222286
16102,Fonteno,10.01921554,45.75786413
16103,Foppolo,9.75497897,46.04394127
16104,Foresto Sparso,9.91367871,45.69511225
16105,Fornovo San Giovanni,9.67510261,45.49614791
16106,Fuipiano Valle Imagna,9.52497381,45.85710204
16107,Gandellino,9.94595319,45.99065651
16108,Gandino,9.90400497,45.81128887
16109,Gandosso,9.88989631,45.66236043
16110,Gaverina Terme,9.88615741,45.75834161
16111,Gazzaniga,9.83572599,45.79743158
16113,Ghisalba,9.75443504,45.59161982
16114,Gorlago,9.82916960,45.67653217
16115,Gorle,9.71877961,45.70242869
16116,Gorno,9.84340028,45.86280091
16117,Grassobbio,9.72770139,45.65483964
16118,Gromo,9.92990165,45.97038555
16119,Grone,9.90882163,45.72721250
16120,Grumello del Monte,9.86977119,45.63401660
16121,Isola di Fondra,9.74750710,45.98078910
16122,Isso,9.75897489,45.47629500
16123,Lallio,9.62688120,45.66731611
16124,Leffe,9.88525625,45.79979518
16125,Lenna,9.67730257,45.94318433
16126,Levate,9.62447164,45.62522363
16127,Locatello,9.53254936,45.83222039
16128,Lovere,10.07160122,45.81288555
16129,Lurano,9.63944209,45.56502780
16130,Luzzana,9.87986502,45.71597847
16131,Madone,9.54994881,45.65199573
16132,Mapello,9.54573257,45.70939829
16133,Martinengo,9.76736896,45.57167298
16134,Mezzoldo,9.66566839,46.01220471
16135,Misano di Gera d'Adda,9.62059954,45.46855110
16136,Moio de' Calvi,9.70058412,45.95144174
16137,Monasterolo del Castello,9.93135584,45.76326118
16139,Montello,9.80506490,45.67091191
16140,Morengo,9.70220970,45.53200212
16141,Mornico al Serio,9.80871213,45.59054900
16142,Mozzanica,9.69375604,45.47709603
16143,Mozzo,9.60902504,45.70017710
16144,Nembro,9.75892641,45.74353321
16145,Olmo al Brembo,9.64893935,45.96953727
16146,Oltre il Colle,9.76684312,45.89272446
16147,Oltressenda Alta,9.94421623,45.91448234
16148,Oneta,9.81927675,45.87142446
16149,Onore,10.00997787,45.89257892
16150,Orio al Serio,9.69151337,45.67573293
16151,Ornica,9.57845482,45.98891231
16152,Osio Sopra,9.59192450,45.62977209
16153,Osio Sotto,9.59270829,45.61618219
16154,Pagazzano,9.67331479,45.53359411
16155,Paladina,9.60637977,45.72721062
16156,Palazzago,9.53730572,45.75122637
16157,Palosco,9.83787414,45.58347493
16158,Parre,9.89189745,45.87706854
16159,Parzanica,10.03589843,45.73811128
16160,Pedrengo,9.73413550,45.69842976
16161,Peia,9.89707550,45.79967397
16162,Pianico,10.04353627,45.81099519
16163,Piario,9.92643911,45.89596376
16164,Piazza Brembana,9.67734981,45.94631547
16165,Piazzatorre,9.68557205,45.99001243
16166,Piazzolo,9.67228091,45.97907415
16167,Pognano,9.64199470,45.58590063
16168,Ponte Nossa,9.88739539,45.86954276
16169,Ponteranica,9.65475910,45.73073708
16170,Ponte San Pietro,9.58690420,45.69898952
16171,Pontida,9.50045312,45.73147772
16172,Pontirolo Nuovo,9.56780777,45.56867250
16173,Pradalunga,9.78432737,45.74796639
16174,Predore,10.01950385,45.68066321
16175,Premolo,9.87533480,45.86859604
16176,Presezzo,9.56670539,45.69162228
16177,Pumenengo,9.86772503,45.48030174
16178,Ranica,9.71460508,45.72696442
16179,Ranzanico,9.93612409,45.78860457
16180,Riva di Solto,10.03938351,45.77417492
16182,Rogno,10.13343949,45.85782003
16183,Romano di Lombardia,9.75316933,45.51945126
16184,Roncobello,9.74782375,45.95643792
16185,Roncola,9.56102894,45.76925026
16186,Rota d'Imagna,9.51152824,45.83414786
16187,Rovetta,9.98490261,45.89111129
16188,San Giovanni Bianco,9.65182322,45.87456477
16189,San Paolo d'Argon,9.80174843,45.68763520
16190,San Pellegrino Terme,9.66330535,45.83833313
16191,Santa Brigida,9.62343680,45.98128440
16193,Sarnico,9.95835303,45.66799802
16194,Scanzorosciate,9.73679641,45.71186891
16195,Schilpario,10.15451561,46.00956474
16196,Sedrina,9.62345823,45.77991523
16197,Selvino,9.75012725,45.78074838
16198,Seriate,9.71764216,45.68353578
16199,Serina,9.73009145,45.87138372
16200,Solto Collina,10.02592875,45.78223969
16201,Songavazzo,9.98981791,45.88091617
16202,Sorisole,9.66253698,45.74474021
16203,Sotto il Monte Giovanni XXIII,9.49887457,45.70569781
16204,Sovere,10.02552685,45.82415622
16205,Spinone al Lago,9.92154248,45.76476001
16206,Spirano,9.67098717,45.58217246
16207,Stezzano,9.65102483,45.64975666
16208,Strozza,9.57785981,45.77424733
16209,Suisio,9.50127414,45.65978989
16210,Taleggio,9.56480824,45.89403010
16211,Tavernola Bergamasca,10.04532871,45.70922375
16212,Telgate,9.85342403,45.62729393
16213,Terno d'Isola,9.53143321,45.68359940
16214,Torre Boldone,9.70773248,45.71609034
16216,Torre de' Roveri,9.77220696,45.69951084
16217,Torre Pallavicina,9.86262527,45.44145792
16218,Trescore Balneario,9.84277423,45.69508834
16219,Treviglio,9.59264990,45.52176480
16220,Treviolo,9.61127104,45.67161825
16221,Ubiale Clanezzo,9.61669209,45.78339354
16222,Urgnano,9.68917779,45.59854143
16223,Valbondione,10.01261961,46.03798458
16224,Valbrembo,9.60836917,45.71643237
16225,Valgoglio,9.91394219,45.97559532
16226,Valleve,9.74322887,46.02819671
16227,Valnegra,9.68946994,45.94911785
16229,Valtorta,9.53500677,45.97757770
16230,Vedeseta,9.54266151,45.88945904
16232,Verdellino,9.61534181,45.60418483
16233,Verdello,9.62702383,45.60652189
16234,Vertova,9.84987255,45.80858625
16235,Viadanica,9.96132435,45.68552811
16236,Vigano San Martino,9.89576413,45.72609362
16237,Vigolo,10.02631466,45.71641986
16238,Villa d'Adda,9.46461423,45.71283271
16239,Villa d'Almè,9.61792022,45.74634480
16240,Villa di Serio,9.73419702,45.72011449
16241,Villa d'Ogna,9.93053034,45.90754175
16242,Villongo,9.93475122,45.67239404
16243,Vilminore di Scalve,10.09528648,45.99794954
16244,Zandobbio,9.85241484,45.68654224
16245,Zanica,9.68097350,45.64195570
16246,Zogno,9.66791865,45.79482160
16247,Costa Serina,9.73922304,45.83100576
16248,Algua,9.72222924,45.82583705
16249,Cornalba,9.74464480,45.85024428
16250,Medolago,9.49354197,45.67277395
16251,Solza,9.49030904,45.67777081
16252,Sant'Omobono Terme,9.5187,45.8168
16253,Val Brembilla,9.59647,45.8211
17001,Acquafredda,10.41190041,45.30716861
17002,Adro,9.95535378,45.62514272
17003,Agnosine,10.35768430,45.64771077
17004,Alfianello,10.14824994,45.26758605
17005,Anfo,10.49379785,45.76575000
17006,Angolo Terme,10.14687744,45.89295916
17007,Artogne,10.16452435,45.84832151
17008,Azzano Mella,10.11359436,45.45482356
17009,Bagnolo Mella,10.17928028,45.42902132
17010,Bagolino,10.46893818,45.82122915
17011,Barbariga,10.05674386,45.40397218
17012,Barghe,10.40612722,45.67799548
17013,Bassano Bresciano,10.12684596,45.33019122
17014,Bedizzole,10.42277837,45.51035884
17015,Berlingo,10.03295371,45.50276977
17016,Berzo Demo,10.33300826,46.09287052
17017,Berzo Inferiore,10.27867321,45.93225933
17018,Bienno,10.29546917,45.93555453
17019,Bione,10.34057147,45.67402934
17020,Borgo San Giacomo,9.97101776,45.35011663
17021,Borgosatollo,10.23603582,45.47507645
17022,Borno,10.20580785,45.94679424
17023,Botticino,10.32329909,45.54329565
17024,Bovegno,10.27221530,45.79234745
17025,Bovezzo,10.24349364,45.59163275
17026,Brandico,10.05092043,45.45427209
17027,Braone,10.34243041,45.99021192
17028,Breno,10.30204086,45.95601285
17029,Brescia,10.21910323,45.53993052
17030,Brione,10.14980761,45.64071464
17031,Caino,10.31575694,45.61251414
17032,Calcinato,10.41651764,45.45747040
17033,Calvagese della Riviera,10.44602336,45.53921951
17034,Calvisano,10.34287551,45.34907813
17035,Capo di Ponte,10.34280170,46.02999867
17036,Capovalle,10.54484270,45.75406745
17037,Capriano del Colle,10.12640959,45.45516249
17038,Capriolo,9.93602291,45.63979785
17039,Carpenedolo,10.43152580,45.36118859
17040,Castegnato,10.11683832,45.56211690
17041,Castelcovati,9.94319171,45.50607430
17042,Castel Mella,10.14188166,45.49759872
17043,Castenedolo,10.30043916,45.47135901
17044,Casto,10.32059748,45.69508611
17045,Castrezzato,9.97671546,45.51108736
17046,Cazzago San Martino,10.02501501,45.58101331
17047,Cedegolo,10.34999445,46.07576226
17048,Cellatica,10.17777203,45.58268839
17049,Cerveno,10.32550765,46.00231643
17050,Ceto,10.35184980,46.00235809
17051,Cevo,10.37037619,46.08019094
17052,Chiari,9.93052864,45.53684360
17053,Cigole,10.19136828,45.30993454
17054,Cimbergo,10.36307614,46.02385329
17055,Cividate Camuno,10.27954747,45.94348981
17056,Coccaglio,9.97696104,45.56238459
17057,Collebeato,10.21388771,45.58567193
17058,Collio,10.33333286,45.81116683
17059,Cologne,9.94305337,45.58560661
17060,Comezzano-Cizzago,9.94904429,45.47259447
17061,Concesio,10.21846104,45.60437212
17062,Corte Franca,10.00698240,45.63719867
17063,Corteno Golgi,10.24224115,46.16596898
17064,Corzano,10.00779086,45.44424630
17065,Darfo Boario Terme,10.18048381,45.88347362
17066,Dello,10.07977147,45.41654998
17067,Desenzano del Garda,10.54158830,45.46858257
17068,Edolo,10.33711194,46.17823140
17069,Erbusco,9.97324124,45.59951824
17070,Esine,10.25917638,45.92401953
17071,Fiesse,10.32170366,45.23334134
17072,Flero,10.17589208,45.48235605
17073,Gambara,10.29778932,45.25386029
17074,Gardone Riviera,10.55799486,45.62009093
17075,Gardone Val Trompia,10.18222299,45.68909413
17076,Gargnano,10.65994462,45.68981041
17077,Gavardo,10.43467889,45.58673467
17078,Ghedi,10.27692536,45.40219778
17079,Gianico,10.18397330,45.86531336
17080,Gottolengo,10.27151767,45.29173169
17081,Gussago,10.15314832,45.59242495
17082,Idro,10.47401396,45.73701964
17083,Incudine,10.35819325,46.22211483
17084,Irma,10.28384537,45.77119698
17085,Iseo,10.05004398,45.65982928
17086,Isorella,10.31665753,45.30756270
17087,Lavenone,10.43796818,45.73901274
17088,Leno,10.21741867,45.36749972
17089,Limone sul Garda,10.79290209,45.81333026
17090,Lodrino,10.27760199,45.71774346
17091,Lograto,10.05743850,45.48318568
17092,Lonato del Garda,10.48429285,45.46089172
17093,Longhena,10.05965597,45.43814089
17094,Losine,10.31750867,45.98358956
17095,Lozio,10.26089085,45.98563822
17096,Lumezzane,10.26175600,45.65014976
17097,Maclodio,10.04178291,45.47674013
17098,Magasa,10.61640340,45.78147613
17099,Mairano,10.07630769,45.45020038
17100,Malegno,10.27241110,45.95070971
17101,Malonno,10.31478286,46.11866545
17102,Manerba del Garda,10.55142577,45.55009614
17103,Manerbio,10.13902184,45.35430213
17104,Marcheno,10.21419546,45.70599766
17105,Marmentino,10.28194328,45.75282746
17106,Marone,10.09156211,45.73709034
17107,Mazzano,10.35979044,45.50360347
17108,Milzano,10.20043867,45.27554151
17109,Moniga del Garda,10.53704308,45.53051675
17110,Monno,10.33803738,46.21261535
17111,Monte Isola,10.07929693,45.71498601
17112,Monticelli Brusati,10.09789844,45.63426021
17113,Montichiari,10.39528281,45.41224627
17114,Montirone,10.23111054,45.44377294
17115,Mura,10.34201401,45.71306707
17116,Muscoline,10.46032704,45.56438947
17117,Nave,10.27904530,45.58467547
17118,Niardo,10.33589978,45.97872723
17119,Nuvolento,10.38327962,45.54783467
17120,Nuvolera,10.37015909,45.53332556
17121,Odolo,10.38824584,45.64856079
17122,Offlaga,10.11630783,45.38652358
17123,Ome,10.12416033,45.62489528
17124,Ono San Pietro,10.32924402,46.01645153
17125,Orzinuovi,9.92176686,45.40249790
17126,Orzivecchi,9.96045414,45.42088848
17127,Ospitaletto,10.07517023,45.55686172
17128,Ossimo,10.22847608,45.94575301
17129,Padenghe sul Garda,10.50836300,45.50945065
17130,Paderno Franciacorta,10.07776175,45.59040880
17131,Paisco Loveno,10.29275715,46.07887268
17132,Paitone,10.39994355,45.55300477
17133,Palazzolo sull'Oglio,9.88582148,45.59847763
17134,Paratico,9.95761989,45.66159516
17135,Paspardo,10.37106349,46.02986988
17136,Passirano,10.06402728,45.59815323
17137,Pavone del Mella,10.20804853,45.30332169
17138,San Paolo,10.02462174,45.37129663
17139,Pertica Alta,10.34429218,45.74264899
17140,Pertica Bassa,10.37304046,45.75333445
17141,Pezzaze,10.23921621,45.77493143
17142,Pian Camuno,10.15748085,45.84371740
17143,Pisogne,10.10889801,45.80480282
17144,Polaveno,10.12424826,45.66119599
17145,Polpenazze del Garda,10.50463489,45.54718730
17146,Pompiano,9.98715490,45.43278121
17147,Poncarale,10.17396244,45.46051196
17148,Ponte di Legno,10.51145860,46.25647207
17149,Pontevico,10.08503009,45.27359729
17150,Pontoglio,9.85265228,45.57062305
17151,Pozzolengo,10.62709464,45.40285678
17152,Pralboino,10.21488169,45.26809429
17153,Preseglie,10.39292980,45.66534492
17155,Prevalle,10.42121638,45.54705532
17156,Provaglio d'Iseo,10.04214968,45.63777633
17157,Provaglio Val Sabbia,10.43392813,45.68857672
17158,Puegnago sul Garda,10.50991136,45.57047242
17159,Quinzano d'Oglio,10.00872258,45.31368546
17160,Remedello,10.37196398,45.27889584
17161,Rezzato,10.31849233,45.51341274
17162,Roccafranca,9.91198460,45.46414262
17163,Rodengo Saiano,10.10929589,45.60058750
17164,Roè Volciano,10.49404000,45.62400951
17165,Roncadelle,10.15130870,45.52806210
17166,Rovato,9.99763789,45.56808537
17167,Rudiano,9.88423225,45.48851850
17168,Sabbio Chiese,10.41553263,45.65676279
17169,Sale Marasino,10.11288737,45.71409232
17170,Salò,10.53231140,45.60713769
17171,San Felice del Benaco,10.55377221,45.58275139
17172,San Gervasio Bresciano,10.14967036,45.30601971
17173,San Zeno Naviglio,10.21455357,45.49134250
17174,Sarezzo,10.20297691,45.65378299
17175,Saviore dell'Adamello,10.39820737,46.08049071
17176,Sellero,10.33811802,46.06872235
17177,Seniga,10.17716028,45.24361392
17178,Serle,10.36886737,45.56174398
17179,Sirmione,10.60946835,45.46231487
17180,Soiano del Lago,10.51363282,45.53667141
17181,Sonico,10.35211195,46.16331325
17182,Sulzano,10.10278206,45.69073811
17183,Tavernole sul Mella,10.24024832,45.74807504
17184,Temù,10.47047130,46.24975113
17185,Tignale,10.72185074,45.73951579
17186,Torbole Casaglia,10.10502624,45.50830989
17187,Toscolano-Maderno,10.60624725,45.64167518
17188,Travagliato,10.08021884,45.52337617
17189,Tremosine sul Garda,10.75381073,45.76695652
17190,Trenzano,10.01571144,45.47595167
17191,Treviso Bresciano,10.46199638,45.71274204
17192,Urago d'Oglio,9.87035354,45.51333465
17193,Vallio Terme,10.39578004,45.60922643
17194,Valvestino,10.59482345,45.76184174
17195,Verolanuova,10.07665283,45.32577656
17196,Verolavecchia,10.05181250,45.33052185
17197,Vestone,10.40369545,45.70960367
17198,Vezza d'Oglio,10.40008121,46.24012026
17199,Villa Carcina,10.19527204,45.63141952
17200,Villachiara,9.92960564,45.35687315
17201,Villanuova sul Clisi,10.45370920,45.60166297
17202,Vione,10.44779791,46.24880802
17203,Visano,10.36908371,45.31626037
17204,Vobarno,10.49655796,45.64699577
17205,Zone,10.11661357,45.76219872
17206,Piancogno,10.22051406,45.91880417
18001,Alagna,8.88945222,45.16928391
18002,Albaredo Arnaboldi,9.24350753,45.10683265
18003,Albonese,8.70612790,45.29285040
18004,Albuzzano,9.27717753,45.18754704
18005,Arena Po,9.36186971,45.09443229
18006,Badia Pavese,9.46854900,45.12117417
18007,Bagnaria,9.12433895,44.82607599
18008,Barbianello,9.20599733,45.07570319
18009,Bascapè,9.31542149,45.30464405
18011,Bastida Pancarana,9.09155360,45.08630345
18012,Battuda,9.07740762,45.27357591
18013,Belgioioso,9.31602643,45.16273674
18014,Bereguardo,9.02449546,45.25744652
18015,Borgarello,9.14068907,45.23942871
18016,Borgo Priolo,9.14841048,44.96650803
18017,Borgoratto Mormorolo,9.19322114,44.93011284
18018,Borgo San Siro,8.91269284,45.23483612
18019,Bornasco,9.21835501,45.26637718
18020,Bosnasco,9.35689545,45.06399870
18021,Brallo di Pregola,9.28189064,44.73845550
18022,Breme,8.62332043,45.12790235
18023,Bressana Bottarone,9.13508060,45.07364272
18024,Broni,9.26129813,45.06197007
18025,Calvignano,9.16884328,44.98267158
18026,Campospinoso,9.24669485,45.09360451
18027,Candia Lomellina,8.59816452,45.17473688
18028,Canevino,9.27357320,44.94473370
18029,Canneto Pavese,9.28098021,45.05115779
18030,Carbonara al Ticino,9.05904974,45.16531723
18031,Casanova Lonati,9.21373599,45.09441598
18032,Casatisma,9.13096391,45.04568877
18033,Casei Gerola,8.92707305,45.00630790
18034,Casorate Primo,9.01813904,45.31192430
18035,Cassolnovo,8.80894596,45.36582712
18036,Castana,9.27189802,45.02702606
18037,Casteggio,9.12494869,45.01239955
18038,Castelletto di Branduzzo,9.09766637,45.07018739
18039,Castello d'Agogna,8.68937848,45.23600468
18040,Castelnovetto,8.61139904,45.25437520
18041,Cava Manara,9.10710573,45.13887406
18042,Cecima,9.08168596,44.84781480
18043,Ceranova,9.24226047,45.26001191
18044,Ceretto Lomellina,8.67241282,45.24481961
18045,Cergnago,8.76908632,45.19717197
18046,Certosa di Pavia,9.12741660,45.25434477
18047,Cervesina,9.01775898,45.06117380
18048,Chignolo Po,9.48820517,45.15251471
18049,Cigognola,9.24377127,45.03309465
18050,Cilavegna,8.74367717,45.31042940
18051,Codevilla,9.05549504,44.96399925
18052,Confienza,8.55760228,45.33191517
18053,Copiano,9.32090675,45.19747789
18054,Corana,8.96949055,45.06288562
18057,Corvino San Quirico,9.15892253,45.01556343
18058,Costa de' Nobili,9.37878994,45.13242075
18059,Cozzo,8.61109735,45.19212476
18060,Cura Carpignano,9.25707038,45.21179419
18061,Dorno,8.95195475,45.15485373
18062,Ferrera Erbognone,8.86376906,45.11328526
18063,Filighera,9.31407227,45.17734084
18064,Fortunago,9.18468553,44.92159589
18065,Frascarolo,8.68279849,45.04690209
18066,Galliavola,8.81862618,45.09718401
18067,Gambarana,8.76279748,45.02873481
18068,Gambolò,8.86158530,45.24979779
18069,Garlasco,8.92353757,45.19638380
18071,Gerenzago,9.36220485,45.20355606
18072,Giussago,9.13993742,45.28429328
18073,Godiasco Salice Terme,9.05797207,44.89757219
18074,Golferenzo,9.30696852,44.96175776
18075,Gravellona Lomellina,8.76399625,45.32884890
18076,Gropello Cairoli,8.99214762,45.17717695
18077,Inverno e Monteleone,9.38426433,45.19858107
18078,Landriano,9.25958712,45.31128201
18079,Langosco,8.56284388,45.21533301
18080,Lardirago,9.23437570,45.23543708
18081,Linarolo,9.26788550,45.16021171
18082,Lirio,9.25553586,44.99401253
18083,Lomello,8.79265237,45.12176665
18084,Lungavilla,9.07858780,45.04490566
18085,Magherno,9.32949555,45.22244980
18086,Marcignago,9.07736899,45.25435216
18087,Marzano,9.29457635,45.24758600
18088,Mede,8.73661355,45.09693827
18089,Menconico,9.27906118,44.79595014
18090,Mezzana Bigli,8.84596057,45.06088008
18091,Mezzana Rabattone,9.03229261,45.09470572
18092,Mezzanino,9.20681323,45.12638643
18093,Miradolo Terme,9.44317001,45.17163506
18094,Montalto Pavese,9.20733549,44.97961147
18095,Montebello della Battaglia,9.10100735,44.99970083
18096,Montecalvo Versiggia,9.28398668,44.97040409
18097,Montescano,9.29733537,45.03180352
18098,Montesegale,9.12689667,44.90637183
18099,Monticelli Pavese,9.51274019,45.11050666
18100,Montù Beccaria,9.31241837,45.03883483
18101,Mornico Losana,9.20647093,45.00921957
18102,Mortara,8.73806527,45.25183779
18103,Nicorvo,8.66718852,45.28514650
18104,Olevano di Lomellina,8.71747483,45.21321772
18105,Oliva Gessi,9.17362666,45.00533323
18106,Ottobiano,8.83215280,45.15127105
18107,Palestro,8.53467742,45.30584066
18108,Pancarana,9.05106462,45.07522925
18109,Parona,8.74981845,45.28261312
18110,Pavia,9.16015719,45.18509264
18111,Pietra de' Giorgi,9.22976461,45.02082580
18112,Pieve Albignola,8.96031338,45.11312662
18113,Pieve del Cairo,8.80510102,45.04897446
18114,Pieve Porto Morone,9.43845739,45.11250986
18115,Pinarolo Po,9.16481430,45.06602995
18116,Pizzale,9.04731478,45.03431401
18117,Ponte Nizza,9.09737005,44.85187405
18118,Portalbera,9.32259546,45.09940690
18119,Rea,9.15434003,45.11386906
18120,Redavalle,9.20401766,45.03773197
18121,Retorbido,9.03634536,44.94922806
18122,Rivanazzano Terme,9.01644721,44.93053102
18123,Robbio,8.59395750,45.28911604
18124,Robecco Pavese,9.14865428,45.04842105
18125,Rocca de' Giorgi,9.25216656,44.97158431
18126,Rocca Susella,9.09596542,44.91275863
18127,Rognano,9.08992208,45.28881563
18128,Romagnese,9.32948080,44.83722972
18129,Roncaro,9.27692361,45.22572761
18130,Rosasco,8.57927243,45.25030244
18131,Rovescala,9.35012702,45.01374627
18132,Ruino,9.27345180,44.92787354
18133,San Cipriano Po,9.28086220,45.10908756
18134,San Damiano al Colle,9.34857225,45.02712110
18135,San Genesio ed Uniti,9.17987326,45.23284900
18136,San Giorgio di Lomellina,8.79111791,45.17380714
18137,San Martino Siccomario,9.13451976,45.15715963
18138,Sannazzaro de' Burgondi,8.90828982,45.10316308
18139,Santa Cristina e Bissone,9.40113574,45.15679448
18140,Santa Giuletta,9.18159447,45.03384034
18141,Sant'Alessio con Vialone,9.22506259,45.22209769
18142,Santa Margherita di Staffora,9.24055817,44.77079137
18143,Santa Maria della Versa,9.29994477,44.98468950
18144,Sant'Angelo Lomellina,8.64314480,45.24662130
18145,San Zenone al Po,9.36114462,45.10854539
18146,Sartirana Lomellina,8.66185489,45.11434048
18147,Scaldasole,8.91019032,45.12493797
18148,Semiana,8.72970509,45.13736987
18149,Silvano Pietra,8.94817867,45.03996573
18150,Siziano,9.19872487,45.32016711
18151,Sommo,9.08377546,45.13223484
18152,Spessa,9.34922713,45.11373851
18153,Stradella,9.29516730,45.07530591
18154,Suardi,8.74304811,45.02945257
18155,Torrazza Coste,9.08644549,44.97654992
18156,Torre Beretti e Castellaro,8.67030548,45.05996692
18157,Torre d'Arese,9.31681664,45.24240140
18158,Torre de' Negri,9.33560207,45.15066298
18159,Torre d'Isola,9.07639687,45.21746495
18160,Torrevecchia Pia,9.29792661,45.28286993
18161,Torricella Verzate,9.17584206,45.01559546
18162,Travacò Siccomario,9.16151622,45.15248202
18163,Trivolzio,9.04708121,45.26094339
18164,Tromello,8.86959755,45.21183831
18165,Trovo,9.03576818,45.28284959
18166,Val di Nizza,9.16683303,44.87933288
18167,Valeggio,8.86129109,45.15064328
18168,Valle Lomellina,8.66495548,45.14711708
18169,Valle Salimbene,9.23298223,45.16962743
18170,Valverde,9.23333357,44.86440068
18171,Varzi,9.19627250,44.82199953
18172,Velezzo Lomellina,8.73721007,45.16370704
18173,Vellezzo Bellini,9.10213278,45.26952835
18174,Verretto,9.10769690,45.04004064
18175,Verrua Po,9.17316700,45.11132967
18176,Vidigulfo,9.23483143,45.29187437
18177,Vigevano,8.85987557,45.31761391
18178,Villa Biscossi,8.78668897,45.08995761
18179,Villanova d'Ardenghi,9.04324484,45.17133665
18180,Villanterio,9.36041071,45.22071855
18181,Vistarino,9.30645859,45.21147861
18182,Voghera,9.00852362,44.99312509
18183,Volpara,9.29747619,44.95378870
18184,Zavattarello,9.26543670,44.86874500
18185,Zeccone,9.19841152,45.26093049
18186,Zeme,8.66631170,45.19492928
18187,Zenevredo,9.32664307,45.05390342
18188,Zerbo,9.39545253,45.11055284
18189,Zerbolò,9.01438660,45.20676064
18190,Zinasco,9.02849669,45.12824661
18191,Cornale e Bastida,8.91089,45.0439
